Event ID	Event Date	Source Name	Source Sectors	Source Country	Event Text	CAMEO Code	Intensity	Target Name	Target Sectors	Target Country	Story ID	Sentence Number	Publisher	City	District	Province	Country	Latitude	Longitude
34102312	2019-03-13	Company - Owner or Operator (Mexico)	Business,Social	Mexico	Make pessimistic comment	012	-0.4	Head of Government (Mexico)	Government,Executive Office,Executive	Mexico	49154197	5	The Oil Daily			Estado de Tabasco	Mexico	18	-92.6667
34100944	2019-03-14	Businessperson (France)	Social,Business	France	Bring lawsuit against	115	-2	BNP Paribas	Multinational Corporation,Business,Consulting / Financial Services Business,Social,Consulting / Financial Services MNCs	France	49151596	1	The Jerusalem Post				France	48.8534	2.3486
34100945	2019-03-14	Businessperson (France)	Social,Business	France	Bring lawsuit against	115	-2	Jean Lemierre			49151596	1	The Jerusalem Post				France	48.8534	2.3486
34100894	2019-03-14	Cape Verde		Cape Verde	Express intent to engage in diplomatic cooperation (such as policy support)	032	4.5	Israel		Israel	49151597	1	The Jerusalem Post	Praia		Concelho da Praia	Cape Verde	14.9315	-23.5125
34100895	2019-03-14	Foreign Affairs (Cape Verde)	Government,Foreign Ministry,Executive	Cape Verde	Grant diplomatic recognition	054	6	Israel		Israel	49151597	4	The Jerusalem Post	Praia		Concelho da Praia	Cape Verde	14.9315	-23.5125
34100896	2019-03-14	Cape Verde		Cape Verde	Grant diplomatic recognition	054	6	Israel		Israel	49151597	5	The Jerusalem Post	Jerusalem		Jerusalem District	Israel	31.769	35.2163
34100970	2019-03-14	Isaac Herzog	Dissident,Protestors / Popular Opposition / Mobs	Israel	Criticize or denounce	111	-2	Miri Regev	Executive,(National) Major Party,Parties,Government,Center Right,Ideological,Unicameral,Legislative / Parliamentary,Women / Children / Social / Welfare / Development / Religion Ministry	Israel	49151598	1	The Jerusalem Post				Israel	31.779	35.2253
34100971	2019-03-14	Citizen (Israel)	Social,General Population / Civilian / Social	Israel	Criticize or denounce	111	-2	Miri Regev	Executive,(National) Major Party,Parties,Government,Center Right,Ideological,Unicameral,Legislative / Parliamentary,Women / Children / Social / Welfare / Development / Religion Ministry	Israel	49151598	1	The Jerusalem Post				Israel	31.779	35.2253
34100969	2019-03-14	Citizen (Israel)	Social,General Population / Civilian / Social	Israel	Make an appeal or request	020	3	Benjamin Netanyahu	Executive,(National) Major Party,Parties,Government,Center Right,Executive Office,Ideological,International Ethnic,Foreign Ministry,Jews,Elite	Israel	49151598	5	The Jerusalem Post				Israel	31.779	35.2253
34100897	2019-03-14	Benny Gantz	Military,Government	Israel	Consult	040	1	Gabi Ashkenazi		Israel	49151600	2	The Jerusalem Post	Gaza		Gaza Strip	Occupied Palestinian Territory	31.5	34.4667
34100901	2019-03-14	Gabi Ashkenazi		Israel	Consult	040	1	Benny Gantz	Military,Government	Israel	49151600	2	The Jerusalem Post	Gaza		Gaza Strip	Occupied Palestinian Territory	31.5	34.4667
34100900	2019-03-14	Benny Gantz	Military,Government	Israel	Accuse	112	-2	Naftali Bennett	Government	Israel	49151600	5	The Jerusalem Post	Gaza		Gaza Strip	Occupied Palestinian Territory	31.5	34.4667
34100898	2019-03-14	Benny Gantz	Military,Government	Israel	Criticize or denounce	111	-2	Naftali Bennett	Government	Israel	49151600	6	The Jerusalem Post				Israel	31.779	35.2253
34100899	2019-03-14	Naftali Bennett	Government	Israel	Criticize or denounce	111	-2	Benny Gantz	Military,Government	Israel	49151600	6	The Jerusalem Post				Israel	31.779	35.2253
34100885	2019-03-14	Citizen (Australia)	Social,General Population / Civilian / Social	Australia	Make an appeal or request	020	3	Australia		Australia	49151602	1	The Jerusalem Post			Jerusalem District	Israel	31.75	35
34100902	2019-03-14	Benjamin Netanyahu	Executive,(National) Major Party,Parties,Government,Center Right,Executive Office,Ideological,International Ethnic,Foreign Ministry,Jews,Elite	Israel	Make statement	010	0	Israel		Israel	49151605	1	The Jerusalem Post				Israel	31.779	35.2253
34100903	2019-03-14	Benjamin Netanyahu	Executive,(National) Major Party,Parties,Government,Center Right,Executive Office,Ideological,International Ethnic,Foreign Ministry,Jews,Elite	Israel	Make statement	010	0	Israel		Israel	49151605	4	The Jerusalem Post				Israel	31.779	35.2253
34100904	2019-03-14	Benjamin Netanyahu	Executive,(National) Major Party,Parties,Government,Center Right,Executive Office,Ideological,International Ethnic,Foreign Ministry,Jews,Elite	Israel	Make statement	010	0	Israel		Israel	49151605	5	The Jerusalem Post				Israel	31.779	35.2253
34100278	2019-03-15	Justice Department/Ministery (Sweden)	Judicial,Government	Sweden	Make statement	010	0	Sweden		Sweden	49150184	1	Esmerk Swedish News				Sweden	59.3326	18.0649
34099071	2019-03-18	Patricia Bullrich	Parties,Legislative / Parliamentary,(National) Minor Party,Government,Centrist,Lower House,Ideological,Center Left	Argentina	Make a visit	042	1.9	United Kingdom		United Kingdom	49147505	2	El Clarin				United Kingdom	51.5085	-0.12574
34099072	2019-03-18	United Kingdom		United Kingdom	Host a visit	043	2.8	Patricia Bullrich	Parties,Legislative / Parliamentary,(National) Minor Party,Government,Centrist,Lower House,Ideological,Center Left	Argentina	49147505	2	El Clarin				United Kingdom	51.5085	-0.12574
34099096	2019-03-18	Ukraine		Ukraine	Reduce or stop material aid	162	-5.6	Russia		Russian Federation	49147521	4	Al Jazeera English	Moscow		Moskva	Russian Federation	55.7522	37.6156
34099068	2019-03-18	John Bercow	Elite,(National) Major Party,Parties,Government,Legislative / Parliamentary,Lower House,Ideological,Center Right	United Kingdom	Make statement	010	0	United Kingdom		United Kingdom	49147523	3	Al Jazeera English				United Kingdom	51.5085	-0.12574
34099101	2019-03-18	Amit Shah	Government,(National) Major Party,Parties,Opposition Major Party (Out Of Government)	India	Consult	040	1	Nitin Gadkari	Transportation Ministry,(National) Major Party,Parties,Water Ministry,Legislative / Parliamentary,Industrial / Textiles / Mining Ministry,Government,Executive,Opposition Major Party (Out Of Government)	India	49147536	3	Hindustan Times	Sanquelim			India	15.5642	74.007
34099102	2019-03-18	Nitin Gadkari	Transportation Ministry,(National) Major Party,Parties,Water Ministry,Legislative / Parliamentary,Industrial / Textiles / Mining Ministry,Government,Executive,Opposition Major Party (Out Of Government)	India	Consult	040	1	Amit Shah	Government,(National) Major Party,Parties,Opposition Major Party (Out Of Government)	India	49147536	3	Hindustan Times	Sanquelim			India	15.5642	74.007
34099100	2019-03-18	Maharashtrawadi Gomantak	(National) Major Party,Parties,Opposition Major Party (Out Of Government)	India	Make statement	010	0	Ministry (India)	Government	India	49147536	5	Hindustan Times	Goa			India	15.502	73.9101
34099141	2019-03-18	Congress (India)	Legislative / Parliamentary,Government	India	Engage in negotiation	046	7	Communist Party of India	Opposition Major Party (Out Of Government),Communist,Parties,(National) Major Party,Ideological	India	49147683	2	Hindustan Times	Lucknow		State of Uttar Pradesh	India	26.8393	80.9231
34099142	2019-03-18	Congress (India)	Legislative / Parliamentary,Government	India	Halt negotiations	164	-6.5	Communist Party of India	Opposition Major Party (Out Of Government),Communist,Parties,(National) Major Party,Ideological	India	49147683	2	Hindustan Times	Lucknow		State of Uttar Pradesh	India	26.8393	80.9231
34099143	2019-03-18	Communist Party of India	Opposition Major Party (Out Of Government),Communist,Parties,(National) Major Party,Ideological	India	Engage in negotiation	046	7	Congress (India)	Legislative / Parliamentary,Government	India	49147683	2	Hindustan Times	Lucknow		State of Uttar Pradesh	India	26.8393	80.9231
34099140	2019-03-18	Congress (India)	Legislative / Parliamentary,Government	India	Make statement	010	0	Somen Mitra	Government Major Party (In Government),Parties,(National) Major Party	India	49147683	3	Hindustan Times	Delhi		National Capital Territory of Delhi	India	28.6538	77.229
34099171	2019-03-18	Employee (India)	Labor,Social	India	Consult	040	1	Bahujan Samaj Party	(National) Major Party,Parties,Buddhist,International Religious	Nepal	49147756	2	Hindustan Times	Kannauj		State of Uttar Pradesh	India	27.0546	79.922
34099172	2019-03-18	Employee (India)	Labor,Social	India	Consult	040	1	Samajwadi Janata Party	Opposition Major Party (Out Of Government),Parties,(National) Major Party	India	49147756	2	Hindustan Times	Kannauj		State of Uttar Pradesh	India	27.0546	79.922
34099173	2019-03-18	Bahujan Samaj Party	(National) Major Party,Parties,Buddhist,International Religious	Nepal	Consult	040	1	Employee (India)	Labor,Social	India	49147756	2	Hindustan Times	Kannauj		State of Uttar Pradesh	India	27.0546	79.922
34099174	2019-03-18	Samajwadi Janata Party	Opposition Major Party (Out Of Government),Parties,(National) Major Party	India	Consult	040	1	Employee (India)	Labor,Social	India	49147756	2	Hindustan Times	Kannauj		State of Uttar Pradesh	India	27.0546	79.922
34099186	2019-03-18	Police (India)	Government,Police	India	Arrest, detain, or charge with legal action	173	-5	Citizen (India)	General Population / Civilian / Social,Social	India	49147757	3	Hindustan Times	Lucknow		State of Uttar Pradesh	India	26.8393	80.9231
34099168	2019-03-18	Priyanka Gandhi	Government Major Party (In Government),Parties,(National) Major Party	India	Express intent to meet or negotiate	036	4	India		India	49147758	4	Hindustan Times	Varanasi		State of Uttar Pradesh	India	25.3167	83.0104
34099199	2019-03-18	Palestinian Territory, Occupied		Occupied Palestinian Territory	Arrest, detain, or charge with legal action	173	-5	Children (Palestinian Territory, Occupied)	General Population / Civilian / Social,Social	Occupied Palestinian Territory	49147873	3	Al Jazeera English	Janin		West Bank	Occupied Palestinian Territory	32.4594	35.3009
34099200	2019-03-18	Palestinian Territory, Occupied		Occupied Palestinian Territory	Arrest, detain, or charge with legal action	173	-5	Citizen (Palestinian Territory, Occupied)	General Population / Civilian / Social,Social	Occupied Palestinian Territory	49147873	4	Al Jazeera English	Bayt Ummar		West Bank	Occupied Palestinian Territory	31.6233	35.1045
34099201	2019-03-18	Israeli Defense Forces	Government,Military	Israel	Use conventional military force	190	-10	Citizen (Palestinian Territory, Occupied)	General Population / Civilian / Social,Social	Occupied Palestinian Territory	49147873	6	Al Jazeera English			West Bank	Occupied Palestinian Territory	31.6667	35.25
34099164	2019-03-18	Domestic Affairs (Iran)	Interior / Home Ministry,Executive,Government	Iran	Make statement	010	0	State Media (Iran)	Executive,State Media,Information / Communication / Transparency Ministry,Government	Iran	49147875	1	Al Jazeera English	Tehran		Tehran Province	Iran	35.6944	51.4215
34099166	2019-03-18	Turkey		Turkey	Use conventional military force	190	-10	Armed Rebel (Turkish Kurds)	International Ethnic,Kurd (Ethnic Group)	Turkey	49147875	2	Al Jazeera English	Tehran		Tehran Province	Iran	35.6944	51.4215
34099167	2019-03-18	Iran		Iran	Use conventional military force	190	-10	Armed Rebel (Turkish Kurds)	International Ethnic,Kurd (Ethnic Group)	Turkey	49147875	2	Al Jazeera English	Tehran		Tehran Province	Iran	35.6944	51.4215
34099165	2019-03-18	Domestic Affairs (Turkey)	Interior / Home Ministry,Executive,Government	Turkey	Make statement	010	0	Kurdistan Workers' Party	Separatists,Dissident,International Ethnic,Kurd (Ethnic Group)	Turkey	49147875	3	Al Jazeera English			Kurdistan	Iran	36.9895	44.255
34099224	2019-03-18	Jacinda Ardern	Unicameral,Legislative / Parliamentary,Center Left,Ideological,Executive,Executive Office,(National) Major Party,Parties,Government,Elite	New Zealand	Make statement	010	0	New Zealand		New Zealand	49147949	3	The Scotsman				New Zealand	-41.2833	174.767
34099211	2019-03-18	Egypt		Egypt	Criticize or denounce	111	-2	Israel		Israel	49147979	2	Israel Faxx	Tel Aviv		Tel Aviv District	Israel	32.0809	34.7806
34099375	2019-03-18	Police (Australia)	Government,Police	Australia	Use conventional military force	190	-10	Australia		Australia	49148152	5	Unknown	Sandy Beach		State of New South Wales	Australia	-30.1468	153.192
34099356	2019-03-18	Ministry (United Kingdom)	Government	United Kingdom	Make pessimistic comment	012	-0.4	United Kingdom		United Kingdom	49148153	4	Unknown	Canterbury	Kent	England	United Kingdom	51.279	1.07992
34099357	2019-03-18	Sajid Javid	Government,Executive,Cabinet,Interior / Home Ministry	United Kingdom	Consult	040	1	Muslim (United Kingdom)	National Religious,Muslim,International Religious,Social	United Kingdom	49148153	6	Unknown	London	Greater London	England	United Kingdom	51.5085	-0.12574
34099358	2019-03-18	Sajid Javid	Government,Executive,Cabinet,Interior / Home Ministry	United Kingdom	Consult	040	1	Indigenous People (United Kingdom)	Social,General Population / Civilian / Social	United Kingdom	49148153	6	Unknown	London	Greater London	England	United Kingdom	51.5085	-0.12574
34099359	2019-03-18	Muslim (United Kingdom)	National Religious,Muslim,International Religious,Social	United Kingdom	Consult	040	1	Sajid Javid	Government,Executive,Cabinet,Interior / Home Ministry	United Kingdom	49148153	6	Unknown	London	Greater London	England	United Kingdom	51.5085	-0.12574
34099360	2019-03-18	Indigenous People (United Kingdom)	Social,General Population / Civilian / Social	United Kingdom	Consult	040	1	Sajid Javid	Government,Executive,Cabinet,Interior / Home Ministry	United Kingdom	49148153	6	Unknown	London	Greater London	England	United Kingdom	51.5085	-0.12574
34099539	2019-03-18	Other Authorities / Officials (Peru)	Government	Peru	Make optimistic comment	013	0.4	Military Personnel - Special (Peru)	Military,Government	Peru	49148716	6	La Nacion	Buenos Aires		Ciudad Autonoma de Buenos Aires	Argentina	-34.6132	-58.3772
34099750	2019-03-18	Drug Enforcement (Philippines)	Drugs Ministry,Executive,Government	Philippines	Arrest, detain, or charge with legal action	173	-5	Citizen (Philippines)	Social,General Population / Civilian / Social	Philippines	49149080	4	PNA (Philippines News Agency)	Bacolod City	Province of Negros Occidental	Western Visayas	Philippines	10.6667	122.95
34099751	2019-03-18	Secret Agent (Philippines)	Government,Military Intelligence,Military	Philippines	Arrest, detain, or charge with legal action	173	-5	Criminal (Philippines)	Dissident,Criminals / Gangs	Philippines	49149080	6	PNA (Philippines News Agency)	Bacolod City	Province of Negros Occidental	Western Visayas	Philippines	10.6667	122.95
34099806	2019-03-18	Turan	Media,Social	Azerbaijan	Make statement	010	0	Azerbaijan		Azerbaijan	49149164	2	Turan Information Agency (Azerbaijan)	Baku		Baku City	Azerbaijan	40.3777	49.892
34099897	2019-03-18	Thief (United Kingdom)	Dissident,Criminals / Gangs	United Kingdom	Physically assault	182	-9.5	Citizen (United Kingdom)	Social,General Population / Civilian / Social	United Kingdom	49149561	2	Unknown				United Kingdom	51.5085	-0.12574
34099981	2019-03-18	Amarinder Singh	Government,Legislative / Parliamentary,Local,Provincial	India	Criticize or denounce	111	-2	Bharatiya Janata	Parties,(National) Major Party,Opposition Major Party (Out Of Government)	India	49149644	1	Hindustan Times	Patiala		State of Punjab	India	30.3272	76.4027
34100062	2019-03-18	Police (India)	Government,Police	India	Arrest, detain, or charge with legal action	173	-5	Citizen (India)	General Population / Civilian / Social,Social	India	49149687	5	Hindustan Times	Bilga		State of Punjab	India	31.0499	75.6544
34100092	2019-03-18	Party Member (Bangladesh)	Parties	Bangladesh	Criticize or denounce	111	-2	Women (Bangladesh)	General Population / Civilian / Social,Social	Bangladesh	49149941	4	United News of Bangladesh Limited	Thakurgaon		Rangpur Division	Bangladesh	26.031	88.4699
34100096	2019-03-18	Sheikh Hasina Wajed	Government,Executive,Executive Office,Elite,Government Major Party (In Government),Interior / Home Ministry,(National) Major Party,Foreign Ministry,Parties	Bangladesh	Discuss by telephone	041	1	Justin Trudeau	Legislative / Parliamentary,Executive,Government,Executive Office,(National) Major Party,Center Left,Parties,Ideological	Canada	49149943	1	United News of Bangladesh Limited	Christchurch	Christchurch City	Canterbury	New Zealand	-43.5333	172.633
34100097	2019-03-18	Justin Trudeau	Legislative / Parliamentary,Executive,Government,Executive Office,(National) Major Party,Center Left,Parties,Ideological	Canada	Discuss by telephone	041	1	Sheikh Hasina Wajed	Government,Executive,Executive Office,Elite,Government Major Party (In Government),Interior / Home Ministry,(National) Major Party,Foreign Ministry,Parties	Bangladesh	49149943	1	United News of Bangladesh Limited	Christchurch	Christchurch City	Canterbury	New Zealand	-43.5333	172.633
34100094	2019-03-18	Head of Government (Canada)	Executive,Government,Executive Office	Canada	Make pessimistic comment	012	-0.4	Bangladesh		Bangladesh	49149943	4	United News of Bangladesh Limited	Christchurch	Christchurch City	Canterbury	New Zealand	-43.5333	172.633
34100095	2019-03-18	Justin Trudeau	Legislative / Parliamentary,Executive,Government,Executive Office,(National) Major Party,Center Left,Parties,Ideological	Canada	Make empathetic comment	018	3.4	Citizen (Bangladesh)	General Population / Civilian / Social,Social	Bangladesh	49149943	5	United News of Bangladesh Limited				New Zealand	-41.2833	174.767
34100106	2019-03-18	Sheikh Hasina Wajed	Government,Executive,Executive Office,Elite,Government Major Party (In Government),Interior / Home Ministry,(National) Major Party,Foreign Ministry,Parties	Bangladesh	Make an appeal or request	020	3	Citizen (Bangladesh)	General Population / Civilian / Social,Social	Bangladesh	49149950	1	United News of Bangladesh Limited				Bangladesh	23.7104	90.4074
34100105	2019-03-18	Sheikh Hasina Wajed	Government,Executive,Executive Office,Elite,Government Major Party (In Government),Interior / Home Ministry,(National) Major Party,Foreign Ministry,Parties	Bangladesh	Make statement	010	0	Bangladesh		Bangladesh	49149950	3	United News of Bangladesh Limited				Bangladesh	23.7104	90.4074
34100155	2019-03-18	Head of Government (Philippines)	Government,Executive,Executive Office	Philippines	Make statement	010	0	Philippines		Philippines	49149994	2	PNA (Philippines News Agency)	Cardona	Province of Abra	Cordillera Administrative Region	Philippines	17.6598	120.698
34100474	2019-03-18	India		India	Praise or endorse	051	3.4	Congress (India)	Government,Legislative / Parliamentary	India	49150685	4	Hindustan Times	Mumbai	Konkan Division	State of Maharashtra	India	19.0728	72.8826
34099081	2019-03-19	Citizen (Colombia)	General Population / Civilian / Social,Social	Colombia	Demonstrate or rally	141	-6.5	Head of Government (Colombia)	Government,Executive Office,Executive	Colombia	49147494	1	Reuters - Noticias Latinoamericanas	Bogota		Distrito Capital de Bogota	Colombia	4.60971	-74.0817
34099082	2019-03-19	Citizen (Colombia)	General Population / Civilian / Social,Social	Colombia	Demonstrate or rally	141	-6.5	Unspecified Actor	Unspecified		49147494	2	Reuters - Noticias Latinoamericanas	Bogota		Distrito Capital de Bogota	Colombia	4.60971	-74.0817
34099083	2019-03-19	Public Courts (Colombia)	Government,Judicial	Colombia	Arrest, detain, or charge with legal action	173	-5	Citizen (Colombia)	General Population / Civilian / Social,Social	Colombia	49147494	3	Reuters - Noticias Latinoamericanas	Bogota		Distrito Capital de Bogota	Colombia	4.60971	-74.0817
34099133	2019-03-19	India		India	Consult	040	1	Gopal Kanda	Government	India	49147496	1	Hindustan Times	Haryana		State of Haryana	India	29.6161	76.9806
34099134	2019-03-19	Gopal Kanda	Government	India	Consult	040	1	India		India	49147496	1	Hindustan Times	Haryana		State of Haryana	India	29.6161	76.9806
34099132	2019-03-19	India		India	Make an appeal or request	020	3	Domestic Affairs (India)	Interior / Home Ministry,Government,Executive	India	49147496	5	Hindustan Times	Haryana		State of Haryana	India	29.6161	76.9806
34099073	2019-03-19	Scholar (India)	Education,Social	India	Consult	040	1	Head of Government (India)	Government,Executive,Executive Office	India	49147497	3	Hindustan Times			Telangana	India	18	79.5
34099076	2019-03-19	Head of Government (India)	Government,Executive,Executive Office	India	Consult	040	1	Scholar (India)	Education,Social	India	49147497	3	Hindustan Times			Telangana	India	18	79.5
34099074	2019-03-19	Scholar (India)	Education,Social	India	Criticize or denounce	111	-2	Congress Party	Government Major Party (In Government),(National) Major Party,Parties	India	49147497	4	Hindustan Times	Peddapalli		State of Andhra Pradesh	India	18.6136	79.3744
34099075	2019-03-19	Congress Party	Government Major Party (In Government),(National) Major Party,Parties	India	Reject	120	-4	Scholar (India)	Education,Social	India	49147497	4	Hindustan Times	Peddapalli		State of Andhra Pradesh	India	18.6136	79.3744
34099124	2019-03-19	Police (Switzerland)	Government,Police	Switzerland	Arrest, detain, or charge with legal action	173	-5	Men (India)	General Population / Civilian / Social,Social	India	49147500	1	Hindustan Times	Sion	District de Sion	Canton du Valais	Switzerland	46.2291	7.35942
34099077	2019-03-19	Priyanka Gandhi	Government Major Party (In Government),(National) Major Party,Parties	India	Criticize or denounce	111	-2	Narendra Modi	Dissident,Elite,Hindu,Nationalist,Ideological,International Religious,Opposition Major Party (Out Of Government),Radicals / Extremists / Fundamentalists,(National) Major Party,Parties,Far Right	India	49147501	1	Hindustan Times			State of Uttar Pradesh	India	27.25	80.75
34099118	2019-03-19	Raúl Castro	(National) Major Party,Parties,Communist,Ideological,Elite	Cuba	Host a visit	043	2.8	Cristina Fernández de Kirchner	Nationalist,Elite,Parties,(National) Major Party,Far Left,Ideological	Argentina	49147504	1	El Clarin				Cuba	23.133	-82.383
34099119	2019-03-19	Cristina Fernández de Kirchner	Nationalist,Elite,Parties,(National) Major Party,Far Left,Ideological	Argentina	Make a visit	042	1.9	Raúl Castro	(National) Major Party,Parties,Communist,Ideological,Elite	Cuba	49147504	1	El Clarin				Cuba	23.133	-82.383
34099069	2019-03-19	Armed Gang (New Zealand)	Unidentified Forces	New Zealand	Use unconventional violence	180	-9	Citizen (New Zealand)	Social,General Population / Civilian / Social	New Zealand	49147513	4	Australian Associated Press	Christchurch	Christchurch City	Canterbury	New Zealand	-43.5333	172.633
34099097	2019-03-19	Military (Ukraine)	Government,Military	Ukraine	fight with small arms and light weapons	193	-10	Ukraine		Ukraine	49147514	1	ITAR Tass	Uglegorsk		Donets'ka Oblast'	Ukraine	48.3147	38.2742
34099066	2019-03-19	Mahathir Mohamad	Executive Office,Government,Executive,Elite	Malaysia	Accuse	112	-2	Mohammad Najib Abdul Razak	Government,Elite	Malaysia	49147516	3	Reuters News	Kuala Lumpur		Kuala Lumpur	Malaysia	3.1412	101.687
34099067	2019-03-19	India		India	Make optimistic comment	013	0.4	Narendra Modi	Dissident,Elite,Hindu,Nationalist,Ideological,International Religious,Opposition Major Party (Out Of Government),Radicals / Extremists / Fundamentalists,(National) Major Party,Parties,Far Right	India	49147517	1	Indo-Asian News Service	Goa			India	15.502	73.9101
34099106	2019-03-19	Head of Government (Brazil)	Executive Office,Executive,Government	Brazil	Make a visit	042	1.9	Central Intelligence Agency	Government,Executive,Intelligence Ministry	United States	49147540	1	Associated Press Newswires			Washington D.C.	United States	38.9171	-77.0003
34099107	2019-03-19	Central Intelligence Agency	Government,Executive,Intelligence Ministry	United States	Host a visit	043	2.8	Head of Government (Brazil)	Executive Office,Executive,Government	Brazil	49147540	1	Associated Press Newswires			Washington D.C.	United States	38.9171	-77.0003
34099104	2019-03-19	Lawmaker (Brazil)	Legislative / Parliamentary,Government	Brazil	Make statement	010	0	Central Intelligence Agency	Government,Executive,Intelligence Ministry	United States	49147540	6	Associated Press Newswires	Langley	uThukela District Municipality	Province of KwaZulu-Natal	South Africa	-28.5333	29.8
34099099	2019-03-19	Gladys Berejiklian	Government	Australia	Make statement	010	0	Immigrants (Australia)	General Population / Civilian / Social,Social	Australia	49147544	5	Australian Associated Press	Sydney	City of Sydney	State of New South Wales	Australia	-33.8679	151.207
34099087	2019-03-19	Adil Abdul-Mahdi	Shia,International Religious		Discuss by telephone	041	1	Mike Pence	Lower House,Executive,Legislative / Parliamentary,Executive Office,Government,Parties,Provincial,(National) Major Party,Ideological,Local,Center Right	United States	49147547	1	Trend News Agency (Azerbaijan)				United States	38.8951	-77.0364
34099088	2019-03-19	Mike Pence	Lower House,Executive,Legislative / Parliamentary,Executive Office,Government,Parties,Provincial,(National) Major Party,Ideological,Local,Center Right	United States	Discuss by telephone	041	1	Adil Abdul-Mahdi	Shia,International Religious		49147547	1	Trend News Agency (Azerbaijan)				United States	38.8951	-77.0364
34099117	2019-03-19	Business (United Kingdom)	Social,Business	United Kingdom	Make an appeal or request	020	3	European Union	Regional Diplomatic IGOs,International Government Organization,Regional		49147550	1	Irish Times			Britain	United Kingdom	53.5938	-1.86823
34099108	2019-03-19	Oversight Court (Russia)	Judicial,Government	Russian Federation	Arrest, detain, or charge with legal action	173	-5	Citizen (Russia)	Social,General Population / Civilian / Social	Russian Federation	49147555	1	Irish Times			Chechenskaya Respublika	Russian Federation	43.25	45.8333
34099109	2019-03-19	Oversight Court (Russia)	Judicial,Government	Russian Federation	Arrest, detain, or charge with legal action	173	-5	Citizen (Russia)	Social,General Population / Civilian / Social	Russian Federation	49147555	6	Irish Times	Shali		Tatarstan	Russian Federation	55.6835	49.6592
34099090	2019-03-19	Citizen (New Zealand)	Social,General Population / Civilian / Social	New Zealand	Make pessimistic comment	012	-0.4	Military (New Zealand)	Government,Military	New Zealand	49147559	5	Irish Times	Christchurch	Christchurch City	Canterbury	New Zealand	-43.5333	172.633
34099064	2019-03-19	Winston Peters	Executive Office,Government,Executive,Foreign Ministry,Elite,(National) Major Party,Parties,Opposition Major Party (Out Of Government)	New Zealand	Make statement	010	0	New Zealand		New Zealand	49147561	3	Irish Times	Christchurch	Christchurch City	Canterbury	New Zealand	-43.5333	172.633
34099065	2019-03-19	Winston Peters	Executive Office,Government,Executive,Foreign Ministry,Elite,(National) Major Party,Parties,Opposition Major Party (Out Of Government)	New Zealand	Criticize or denounce	111	-2	Recep Tayyip Erdoğan	Executive Office,(National) Major Party,Executive,Parties,Government,International Religious,Sunni,Ideological,Elite,Center Right	Turkey	49147561	3	Irish Times	Christchurch	Christchurch City	Canterbury	New Zealand	-43.5333	172.633
34099089	2019-03-19	Citizen (Iraq)	Social,General Population / Civilian / Social	Iraq	Carry out suicide bombing	1831	-10	Iraq		Iraq	49147562	5	Irish Times				Iraq	33.3406	44.4009
34099085	2019-03-19	Police (India)	Government,Police	India	Arrest, detain, or charge with legal action	173	-5	Citizen (India)	General Population / Civilian / Social,Social	India	49147574	1	Hindustan Times				India	28.6358	77.2244
34099084	2019-03-19	Police (India)	Government,Police	India	Make statement	010	0	Media (India)	Social,Media	India	49147574	4	Hindustan Times	Bhiwandi		State of Maharashtra	India	19.3002	73.0588
34099125	2019-03-19	France		France	Arrest, detain, or charge with legal action	173	-5	Criminal (France)	Dissident,Criminals / Gangs	France	49147580	1	Le Figaro	Sarthe	Departement de Maine-et-Loire	Region Pays de la Loire	France	47.493	-0.54161
34099126	2019-03-19	Criminal (France)	Dissident,Criminals / Gangs	France	Use unconventional violence	180	-9	Citizen (France)	Social,General Population / Civilian / Social	France	49147580	5	Le Figaro	Paris	Paris	Region Ile-de-France	France	48.8534	2.3488
34099128	2019-03-19	Muslim (Mali)	Social,National Religious,International Religious,Muslim	Mali	Use conventional military force	190	-10	Military (Mali)	Military,Government	Mali	49147590	3	Le Figaro	Dioura		Mopti Region	Mali	14.8252	-5.2547
34099092	2019-03-19	Member of the Judiciary (Israel)	Government,Judicial	Israel	Praise or endorse	051	3.4	Jew (Israel)	Social,International Religious,Jewish,National Religious	Israel	49147592	5	Le Figaro				Israel	31.779	35.2253
34099127	2019-03-19	Police (Brazil)	Police,Government	Brazil	Arrest, detain, or charge with legal action	173	-5	Children (Brazil)	General Population / Civilian / Social,Social	Brazil	49147632	1	Agence France-Presse	Suzano	Suzano	Estado de Sao Paulo	Brazil	-23.5425	-46.3108
34099131	2019-03-19	Citizen (Australia)	General Population / Civilian / Social,Social	Australia	Acknowledge or claim responsibility	015	0	United States		United States	49147634	3	Australian Associated Press	Chapel Hill	Brisbane	State of Queensland	Australia	-27.5026	152.95
34099113	2019-03-19	Legislature (New Zealand)	Government,Legislative / Parliamentary	New Zealand	Make empathetic comment	018	3.4	Citizen (New Zealand)	Social,General Population / Civilian / Social	New Zealand	49147635	2	Australian Associated Press	Wellington	Wellington City	Wellington	New Zealand	-41.2866	174.776
34099195	2019-03-19	Media Personnel (Indonesia)	Media,Social	Indonesia	Make statement	010	0	Indonesia		Indonesia	49147687	2	Associated Press Newswires	Sentani		Provinsi Papua	Indonesia	-2.5691	140.513
34099196	2019-03-19	United States		United States	Make an appeal or request	020	3	Mexico		Mexico	49147694	6	Xinhua News Agency			Washington D.C.	United States	38.9171	-77.0003
34099161	2019-03-19	Rodrigo Duterte	Executive,Executive Office,Government	Philippines	Threaten	130	-4.4	Fatou Bensouda	Social,International Government Organization,Global,Legal,Global Law / Justice / Judicial IGOs		49147697	4	The Washington Post	Manila	City of Manila	National Capital Region	Philippines	14.6042	120.982
34099160	2019-03-19	Cabinet / Council of Ministers / Advisors (Afghanistan)	Executive,Government,Cabinet	Afghanistan	Make statement	010	0	United States		United States	49147697	5	The Washington Post	The Hague	Gemeente Den Haag	Provincie Zuid-Holland	Netherlands	52.0767	4.29861
34099197	2019-03-19	Cable News Network	News,Social,Television News,Media	United States	Demand change in leadership	1041	-5	Citizen (Brazil)	General Population / Civilian / Social,Social	Brazil	49147711	3	The Washington Post				Brazil	-15.8307	-47.6127
34099179	2019-03-19	Ashraf Ghani Ahmadzai	International Government Organization,Global,Pashtun,Executive,Executive Office,Global Economic/Financial/Trade IGOs,Muslim,Global Development IGOs,International Religious,Development NGOs,International Ethnic,Government,Nongovernmental Organizations / Activists	Afghanistan	Criticize or denounce	111	-2	United States		United States	49147712	4	The Washington Post			Washington D.C.	United States	38.9171	-77.0003
34099194	2019-03-19	Federal Bureau of Investigation	Justice / Law Ministry,Executive,Government	United States	Investigate	090	-2	Head of Government (Russia)	Government,Executive,Executive Office	Russian Federation	49147715	4	The Washington Post	New York City		state of New York	United States	40.7143	-74.006
34099209	2019-03-19	Armed Gang (Zimbabwe)	Unidentified Forces	Zimbabwe	fight with small arms and light weapons	193	-10	Citizen (Zimbabwe)	General Population / Civilian / Social,Social	Zimbabwe	49147725	1	Cape Argus	Nyanga		Manicaland Province	Zimbabwe	-18.2159	32.7411
34099146	2019-03-19	Freedom Front Plus	(National) Minor Party,Christian,Center Left,International Religious,Ideological,Parties,Nationalist	South Africa	Make statement	010	0	South Africa		South Africa	49147729	4	Cape Argus				South Africa	-25.7449	28.1878
34099153	2019-03-19	South Africa		South Africa	Arrest, detain, or charge with legal action	173	-5	Citizen (South Africa)	Social,General Population / Civilian / Social	South Africa	49147750	4	The Mercury			Gauteng	South Africa	-26.0833	28.25
34099182	2019-03-19	Freedom Front Plus	(National) Minor Party,Christian,Center Left,International Religious,Ideological,Parties,Nationalist	South Africa	Make statement	010	0	Election Commission (South Africa)	Elections Ministry,Government,Executive	South Africa	49147753	1	The Mercury	Bloemfontein	Mangaung Metropolitan Municipality	Province of the Orange Free State	South Africa	-29.1211	26.214
34099151	2019-03-19	Emperor Akihito	Executive Office,Government,Shinto,International Religious,Elite,Executive	Japan	Consult	040	1	Representatives (Japan)	Government,Legislative / Parliamentary	Japan	49147754	2	Kyodo News	Tokyo		Tokyo-to	Japan	35.6895	139.692
34099152	2019-03-19	Representatives (Japan)	Government,Legislative / Parliamentary	Japan	Consult	040	1	Emperor Akihito	Executive Office,Government,Shinto,International Religious,Elite,Executive	Japan	49147754	2	Kyodo News	Tokyo		Tokyo-to	Japan	35.6895	139.692
34099202	2019-03-19	Freedom Front Plus	(National) Minor Party,Christian,Center Left,International Religious,Ideological,Parties,Nationalist	South Africa	Make statement	010	0	South Africa		South Africa	49147762	4	Daily News				South Africa	-25.7449	28.1878
34099178	2019-03-19	South Africa		South Africa	Arrest, detain, or charge with legal action	173	-5	Business (South Africa)	Business,Social	South Africa	49147771	5	Daily News	Durban	eThekwini Metropolitan Municipality	Province of KwaZulu-Natal	South Africa	-29.8579	31.0292
34099175	2019-03-19	Freedom Front Plus	(National) Minor Party,Christian,Center Left,International Religious,Ideological,Parties,Nationalist	South Africa	Make statement	010	0	Election Commission (South Africa)	Elections Ministry,Government,Executive	South Africa	49147786	1	Cape Times	Bloemfontein	Mangaung Metropolitan Municipality	Province of the Orange Free State	South Africa	-29.1211	26.214
34099163	2019-03-19	Military Personnel (South Africa)	Military,Government	South Africa	Make statement	010	0	Police (South Africa)	Government,Police	South Africa	49147793	2	Cape Times	Rustenburg	Bojanala Platinum District Municipality	Province of North-West	South Africa	-25.6676	27.2421
34099180	2019-03-19	Government (Argentina)	Government	Argentina	Praise or endorse	051	3.4	Extremist (Argentina)	Dissident,Radicals / Extremists / Fundamentalists	Argentina	49147796	5	Cape Times	Robben Island		Province of the Western Cape	South Africa	-33.7833	18.3667
34099198	2019-03-19	South Korea		South Korea	Express intent to meet or negotiate	036	4	United Kingdom		United Kingdom	49147808	1	Yonhap English News	Seoul		Seoul-teukbyeolsi	South Korea	37.5683	126.978
34099144	2019-03-19	Mike Pompeo	Foreign Ministry,Executive,Government	United States	Express intent to meet or negotiate	036	4	Middle East			49147820	5	The Washington Post				United States	38.8951	-77.0364
34099203	2019-03-19	Children (India)	General Population / Civilian / Social,Social	India	Threaten	130	-4.4	Police (India)	Government,Police	India	49147849	6	Hindustan Times				India	28.6358	77.2244
34099136	2019-03-19	Scholar (India)	Education,Social	India	Consult	040	1	Head of Government (India)	Executive,Government,Executive Office	India	49147850	3	Hindustan Times			Telangana	India	18	79.5
34099139	2019-03-19	Head of Government (India)	Executive,Government,Executive Office	India	Consult	040	1	Scholar (India)	Education,Social	India	49147850	3	Hindustan Times			Telangana	India	18	79.5
34099137	2019-03-19	Scholar (India)	Education,Social	India	Criticize or denounce	111	-2	Congress Party	Government Major Party (In Government),Parties,(National) Major Party	India	49147850	4	Hindustan Times	Peddapalli		State of Andhra Pradesh	India	18.6136	79.3744
34099138	2019-03-19	Congress Party	Government Major Party (In Government),Parties,(National) Major Party	India	Reject	120	-4	Scholar (India)	Education,Social	India	49147850	4	Hindustan Times	Peddapalli		State of Andhra Pradesh	India	18.6136	79.3744
34099184	2019-03-19	Leo Varadkar	Lower House,Executive,Parties,(National) Major Party,Executive Office,Defense / Security Ministry,Center Right,Ideological,Legislative / Parliamentary,Elite,Government	Ireland	Consult	040	1	Donald Tusk	International Government Organization,Elite,Regional,Regional Diplomatic IGOs	Poland	49147851	3	Dow Jones News Service	Antofagasta	Provincia de Antofagasta	Antofagasta	Chile	-23.6524	-70.3954
34099185	2019-03-19	Donald Tusk	International Government Organization,Elite,Regional,Regional Diplomatic IGOs	Poland	Consult	040	1	Leo Varadkar	Lower House,Executive,Parties,(National) Major Party,Executive Office,Defense / Security Ministry,Center Right,Ideological,Legislative / Parliamentary,Elite,Government	Ireland	49147851	3	Dow Jones News Service	Antofagasta	Provincia de Antofagasta	Antofagasta	Chile	-23.6524	-70.3954
34099145	2019-03-19	Head of Government (New Zealand)	Government,Executive Office,Executive	New Zealand	Make statement	010	0	Attacker (New Zealand)	Criminals / Gangs,Dissident	New Zealand	49147855	2	Australian Associated Press	Christchurch	Christchurch City	Canterbury	New Zealand	-43.5333	172.633
34099181	2019-03-19	North Korea		North Korea	Arrest, detain, or charge with legal action	173	-5	Citizen (South Korea)	General Population / Civilian / Social,Social	South Korea	49147859	4	KBS World News - French Edition				North Korea	39.0339	125.754
34099192	2019-03-19	Lee Nak-yeon	Executive,Executive Office,Government,Elite	South Korea	Host a visit	043	2.8	Foreign Affairs (Libya)	Foreign Ministry,Executive,Government	Libya	49147860	1	KBS World News - French Edition	Seoul		Seoul-teukbyeolsi	South Korea	37.5683	126.978
34099193	2019-03-19	Foreign Affairs (Libya)	Foreign Ministry,Executive,Government	Libya	Make a visit	042	1.9	Lee Nak-yeon	Executive,Executive Office,Government,Elite	South Korea	49147860	1	KBS World News - French Edition	Seoul		Seoul-teukbyeolsi	South Korea	37.5683	126.978
34099191	2019-03-19	Mohamed Taha Siala	Foreign Ministry,Executive,Government	Libya	Make statement	010	0	Libya		Libya	49147860	3	KBS World News - French Edition	Tripoli		Sha`biyat Tarabulus	Libya	32.8752	13.1875
34099158	2019-03-19	South Korea		South Korea	Engage in diplomatic cooperation	050	3.5	Russia		Russian Federation	49147861	2	KBS World News - French Edition	Seoul		Seoul-teukbyeolsi	South Korea	37.5683	126.978
34099159	2019-03-19	Russia		Russian Federation	Engage in diplomatic cooperation	050	3.5	South Korea		South Korea	49147861	2	KBS World News - French Edition	Moscow		Moskva	Russian Federation	55.7522	37.6156
34099207	2019-03-19	Jacinda Ardern	Government,Unicameral,Executive Office,Center Left,Ideological,Legislative / Parliamentary,Executive,Elite,(National) Major Party,Parties	New Zealand	Make statement	010	0	Armed Gang (New Zealand)	Unidentified Forces	New Zealand	49147868	3	Deutsche Welle	Christchurch	Christchurch City	Canterbury	New Zealand	-43.5333	172.633
34099208	2019-03-19	Armed Gang (New Zealand)	Unidentified Forces	New Zealand	Use unconventional violence	180	-9	Citizen (New Zealand)	General Population / Civilian / Social,Social	New Zealand	49147868	3	Deutsche Welle	Christchurch	Christchurch City	Canterbury	New Zealand	-43.5333	172.633
34099187	2019-03-19	Dalia Grybauskaitė	Government,Executive Office,Elite,Executive	Lithuania	Consult	040	1	European Court of Auditors	International Government Organization,Global Economic/Financial/Trade IGOs,Global		49147871	2	Baltic Daily	Vilnius	Vilnius	Vilniaus Apskritis	Lithuania	54.6892	25.2798
34099189	2019-03-19	European Court of Auditors	International Government Organization,Global Economic/Financial/Trade IGOs,Global		Consult	040	1	Dalia Grybauskaitė	Government,Executive Office,Elite,Executive	Lithuania	49147871	2	Baltic Daily	Vilnius	Vilnius	Vilniaus Apskritis	Lithuania	54.6892	25.2798
34099188	2019-03-19	Saulius Skvernelis	Government,Executive Office,Executive	Lithuania	Consult	040	1	Farm Worker (Lithuania)	Social,Agricultural	Lithuania	49147871	4	Baltic Daily	Vilnius	Vilnius	Vilniaus Apskritis	Lithuania	54.6892	25.2798
34099190	2019-03-19	Farm Worker (Lithuania)	Social,Agricultural	Lithuania	Consult	040	1	Saulius Skvernelis	Government,Executive Office,Executive	Lithuania	49147871	4	Baltic Daily	Vilnius	Vilnius	Vilniaus Apskritis	Lithuania	54.6892	25.2798
34099176	2019-03-19	Police (New Zealand)	Government,Police	New Zealand	Investigate	090	-2	Citizen (Australia)	General Population / Civilian / Social,Social	Australia	49147884	2	Australian Associated Press	Christchurch	Christchurch City	Canterbury	New Zealand	-43.5333	172.633
34099177	2019-03-19	Police (New Zealand)	Government,Police	New Zealand	Investigate	090	-2	Citizen (New Zealand)	General Population / Civilian / Social,Social	New Zealand	49147884	3	Australian Associated Press	Christchurch	Christchurch City	Canterbury	New Zealand	-43.5333	172.633
34099261	2019-03-19	Activist (Algeria)	Nongovernmental Organization (International),Human Rights IGOs,Human Rights NGOs,Nongovernmental Organizations / Activists	Algeria	Make an appeal or request	020	3	Abdelaziz Bouteflika	Executive,Government,Executive Office,Ideological,(National) Major Party,Parties,Far Left,Elite	Algeria	49147952	1	Reuters News	Algiers		Wilaya d' Alger	Algeria	36.7525	3.04197
34099262	2019-03-19	Activist (Algeria)	Nongovernmental Organization (International),Human Rights IGOs,Human Rights NGOs,Nongovernmental Organizations / Activists	Algeria	Make an appeal or request	020	3	Military (Algeria)	Military,Government	Algeria	49147952	1	Reuters News	Algiers		Wilaya d' Alger	Algeria	36.7525	3.04197
34099270	2019-03-19	Party Member (Indonesia)	Parties	Indonesia	Criticize or denounce	111	-2	Joko Widodo	Government,Executive,Parties,Executive Office,Elite	Indonesia	49147953	3	Reuters News	Jakarta		Daerah Khusus Ibukota Jakarta	Indonesia	-6.21462	106.845
34099226	2019-03-19	Ethnic Group (Myanmar)	General Population / Civilian / Social,Social	Myanmar	Use unconventional violence	180	-9	Military (Myanmar)	Government,Military	Myanmar	49147965	1	Agence France-Presse			Rakhine State	Myanmar	19	94.25
34099227	2019-03-19	Military (Myanmar)	Government,Military	Myanmar	Use conventional military force	190	-10	Ethnic Group (Myanmar)	General Population / Civilian / Social,Social	Myanmar	49147965	1	Agence France-Presse			Rakhine State	Myanmar	19	94.25
34099225	2019-03-19	Media (Myanmar)	Social,Media	Myanmar	Make statement	010	0	Aye Maung	Government,Elite	Myanmar	49147965	4	Agence France-Presse			Rakhine State	Myanmar	19	94.25
34099228	2019-03-19	Police (Myanmar)	Government,Police	Myanmar	Use conventional military force	190	-10	Citizen (Myanmar)	General Population / Civilian / Social,Social	Myanmar	49147965	5	Agence France-Presse			Rakhine State	Myanmar	19	94.25
34099229	2019-03-19	Protester (Myanmar)	Dissident,Protestors / Popular Opposition / Mobs	Myanmar	Protest violently, riot	145	-7.5	Government (Myanmar)	Government	Myanmar	49147965	5	Agence France-Presse			Rakhine State	Myanmar	19	94.25
34099246	2019-03-19	Moon Jae-in	Executive,Government,Executive Office	South Korea	Demand	100	-5	Lawyer/Attorney (South Korea)	Social,Legal	South Korea	49147972	1	Yonhap English News	Seoul		Seoul-teukbyeolsi	South Korea	37.5683	126.978
34099232	2019-03-19	Police (Brazil)	Police,Government	Brazil	Arrest, detain, or charge with legal action	173	-5	Men (Brazil)	General Population / Civilian / Social,Social	Brazil	49147999	5	O Globo	Suzano	Suzano	Estado de Sao Paulo	Brazil	-23.5425	-46.3108
34099218	2019-03-19	Senate (Nigeria)	Government,Upper House,Legislative / Parliamentary	Nigeria	Make an appeal or request	020	3	Citizen (Nigeria)	General Population / Civilian / Social,Social	Nigeria	49148016	2	All Africa		Ikeja	Lagos State	Nigeria	6.61857	3.34259
34099230	2019-03-19	People's Democratic Party (Nigeria)	Parties	Nigeria	Make statement	010	0	Muhammadu Buhari	Executive Office,Fulani / Fulbe,Executive,Elite,Center Left,International Religious,Ideological,Government,(National) Major Party,Parties,Muslim,(National) Minor Party,International Ethnic,Far Right	Nigeria	49148020	1	All Africa				Nigeria	9.17583	7.18083
34099217	2019-03-19	Public Courts (Nigeria)	Judicial,Government	Nigeria	Complain officially	114	-2	Muhammadu Buhari	Executive Office,Fulani / Fulbe,Executive,Elite,Center Left,International Religious,Ideological,Government,(National) Major Party,Parties,Muslim,(National) Minor Party,International Ethnic,Far Right	Nigeria	49148028	1	All Africa				Nigeria	9.17583	7.18083
34099222	2019-03-19	Military (Nigeria)	Government,Military	Nigeria	Use conventional military force	190	-10	Citizen (Nigeria)	General Population / Civilian / Social,Social	Nigeria	49148029	6	All Africa	Agbadumo		Benue State	Nigeria	7.8444	8.0907
34099223	2019-03-19	Citizen (Nigeria)	General Population / Civilian / Social,Social	Nigeria	Use unconventional violence	180	-9	Military (Nigeria)	Government,Military	Nigeria	49148029	6	All Africa	Agbadumo		Benue State	Nigeria	7.8444	8.0907
34099210	2019-03-19	Muhammadu Buhari	Executive Office,Fulani / Fulbe,Executive,Elite,Center Left,International Religious,Ideological,Government,(National) Major Party,Parties,Muslim,(National) Minor Party,International Ethnic,Far Right	Nigeria	Express intent to cooperate	030	4	Citizen (Nigeria)	General Population / Civilian / Social,Social	Nigeria	49148031	6	All Africa				Nigeria	9.17583	7.18083
34099254	2019-03-19	Police (Taiwan)	Government,Police	Taiwan	Arrest, detain, or charge with legal action	173	-5	Men (Taiwan)	General Population / Civilian / Social,Social	Taiwan	49148039	5	Taipei Times				Taiwan	24.947	121.582
34099255	2019-03-19	Police (Taiwan)	Government,Police	Taiwan	Arrest, detain, or charge with legal action	173	-5	Criminal (Taiwan)	Dissident,Criminals / Gangs	Taiwan	49148039	5	Taipei Times				Taiwan	24.947	121.582
34099256	2019-03-19	Citizen (Taiwan)	General Population / Civilian / Social,Social	Taiwan	Use unconventional violence	180	-9	Taiwan		Taiwan	49148039	5	Taipei Times				Taiwan	24.947	121.582
34099257	2019-03-19	Police (Taiwan)	Government,Police	Taiwan	Use conventional military force	190	-10	Taiwan		Taiwan	49148039	5	Taipei Times				Taiwan	24.947	121.582
34099248	2019-03-19	Cheng Wen-tsan	Government,Municipal,Local	Taiwan	Make statement	010	0	City Mayor (Taiwan)	Government,Municipal,Local	Taiwan	49148045	3	Taipei Times	Tainan	Tainan	Taiwan	Taiwan	22.9908	120.213
34099249	2019-03-19	Cheng Wen-tsan	Government,Municipal,Local	Taiwan	Make optimistic comment	013	0.4	Citizen (Taiwan)	General Population / Civilian / Social,Social	Taiwan	49148045	5	Taipei Times	Tainan	Tainan	Taiwan	Taiwan	22.9908	120.213
34099237	2019-03-19	Moon Jae-in	Executive,Government,Executive Office	South Korea	Make statement	010	0	Ministry (South Korea)	Government	South Korea	49148068	2	Yonhap English News	Seoul		Seoul-teukbyeolsi	South Korea	37.5683	126.978
34099238	2019-03-19	Kim Boo Kyum	Interior / Home Ministry,Executive,Government	South Korea	Engage in symbolic act	017	0	Justice Department/Ministery (South Korea)	Judicial,Government	South Korea	49148068	2	Yonhap English News	Seoul		Seoul-teukbyeolsi	South Korea	37.5683	126.978
34099239	2019-03-19	Justice Department/Ministery (South Korea)	Judicial,Government	South Korea	Engage in symbolic act	017	0	Kim Boo Kyum	Interior / Home Ministry,Executive,Government	South Korea	49148068	2	Yonhap English News	Seoul		Seoul-teukbyeolsi	South Korea	37.5683	126.978
34099240	2019-03-19	Kim Boo Kyum	Interior / Home Ministry,Executive,Government	South Korea	Consult	040	1	Justice Department/Ministery (South Korea)	Judicial,Government	South Korea	49148068	2	Yonhap English News	Seoul		Seoul-teukbyeolsi	South Korea	37.5683	126.978
34099241	2019-03-19	Justice Department/Ministery (South Korea)	Judicial,Government	South Korea	Consult	040	1	Kim Boo Kyum	Interior / Home Ministry,Executive,Government	South Korea	49148068	2	Yonhap English News	Seoul		Seoul-teukbyeolsi	South Korea	37.5683	126.978
34099212	2019-03-19	China		China	Grant diplomatic recognition	054	6	European Union	Regional,International Government Organization,Regional Diplomatic IGOs		49148069	3	Xinhua News Agency	Brussels	(Bruxelles-Capitale)	Bruxelles-Capitale	Belgium	50.8504	4.34878
34099213	2019-03-19	European Union	Regional,International Government Organization,Regional Diplomatic IGOs		Grant diplomatic recognition	054	6	China		China	49148069	3	Xinhua News Agency	Brussels	(Bruxelles-Capitale)	Bruxelles-Capitale	Belgium	50.8504	4.34878
34099268	2019-03-19	Thailand		Thailand	Express intent to engage in diplomatic cooperation (such as policy support)	032	4.5	India		India	49148070	6	Organisation of Asia-Pacific News Agencies	Mae Sot		Changwat Tak	Thailand	16.7167	98.5667
34099269	2019-03-19	Thailand		Thailand	Express intent to engage in diplomatic cooperation (such as policy support)	032	4.5	Myanmar		Myanmar	49148070	6	Organisation of Asia-Pacific News Agencies	Mae Sot		Changwat Tak	Thailand	16.7167	98.5667
34099247	2019-03-19	Thailand		Thailand	Arrest, detain, or charge with legal action	173	-5	Company - Owner or Operator (Thailand)	Social,Business	Thailand	49148077	1	Reuters News	Bangkok		Krung Thep Mahanakhon	Thailand	13.754	100.501
34099215	2019-03-19	Ruling Coalition (Japan)	Government Major Party (In Government),Parties,(National) Major Party	Japan	Make optimistic comment	013	0.4	Government (Japan)	Government	Japan	49148079	4	Jiji Press English News Service	Tokyo		Tokyo-to	Japan	35.6895	139.692
34099216	2019-03-19	Government (Japan)	Government	Japan	Make optimistic comment	013	0.4	Ruling Coalition (Japan)	Government Major Party (In Government),Parties,(National) Major Party	Japan	49148079	4	Jiji Press English News Service	Tokyo		Tokyo-to	Japan	35.6895	139.692
34099265	2019-03-19	John Bercow	Legislative / Parliamentary,Lower House,Government,Center Right,Ideological,Parties,(National) Major Party,Elite	United Kingdom	Make statement	010	0	Lawmaker (United Kingdom)	Legislative / Parliamentary,Government	United Kingdom	49148084	4	The Wall Street Journal	London	Greater London	England	United Kingdom	51.5085	-0.12574
34099258	2019-03-19	Activist (Russia)	Nongovernmental Organization (International),Human Rights NGOs,Human Rights IGOs,Nongovernmental Organizations / Activists	Russian Federation	Investigate	090	-2	Chechnya		Russian Federation	49148085	1	The Wall Street Journal	Moscow		Moskva	Russian Federation	55.7522	37.6156
34099259	2019-03-19	Russia		Russian Federation	Use tactics of violent repression	175	-9	Activist (Russia)	Nongovernmental Organization (International),Human Rights NGOs,Human Rights IGOs,Nongovernmental Organizations / Activists	Russian Federation	49148085	1	The Wall Street Journal	Moscow		Moskva	Russian Federation	55.7522	37.6156
34099266	2019-03-19	Citizen (Iraq)	Social,General Population / Civilian / Social	Iraq	Criticize or denounce	111	-2	United States		United States	49148088	6	The Wall Street Journal	Mosul		Muhafazat Ninawa	Iraq	36.335	43.1189
34099267	2019-03-19	Citizen (Iraq)	Social,General Population / Civilian / Social	Iraq	Criticize or denounce	111	-2	Military (Iraq)	Government,Military	Iraq	49148088	6	The Wall Street Journal	Mosul		Muhafazat Ninawa	Iraq	36.335	43.1189
34099303	2019-03-19	Shinzo Abe	International Religious,Shinto,Executive,Buddhist,Ideological,Parties,Executive Office,Center Right,(National) Major Party,Government,Elite	Japan	Make statement	010	0	Ministry (Japan)	Government	Japan	49148143	5	Xinhua News Agency	Tokyo		Tokyo-to	Japan	35.6895	139.692
34099339	2019-03-19	Frank Bainimarama	Elite,Executive,Executive Office,Government,Military,Foreign Ministry	Fiji	Appeal to others to meet or negotiate	026	4	Citizen (Fiji)	General Population / Civilian / Social,Social	Fiji	49148145	5	Xinhua News Agency	Christchurch	Christchurch City	Canterbury	New Zealand	-43.5333	172.633
34099313	2019-03-19	Lee Hsien Loong	Government,Executive,Legislative / Parliamentary,Executive Office,Elite,(National) Major Party,Parties,Government Major Party (In Government)	Singapore	Bring lawsuit against	115	-2	Citizen (Singapore)	Social,General Population / Civilian / Social	Singapore	49148147	1	Straits Times				Singapore	1.28967	103.85
34099314	2019-03-19	Court Judge (Singapore)	Government,Judicial	Singapore	Reject	120	-4	Citizen (Singapore)	Social,General Population / Civilian / Social	Singapore	49148147	2	Straits Times				Singapore	1.28967	103.85
34099332	2019-03-19	Representatives (United States)	Government,Legislative / Parliamentary	United States	Occupy territory	192	-9.5	Venezuela		Venezuela	49148151	1	El Cronista			Washington D.C.	United States	38.9171	-77.0003
34099328	2019-03-19	Activist (Algeria)	Nongovernmental Organizations / Activists,Human Rights NGOs,Nongovernmental Organization (International),Human Rights IGOs	Algeria	Make an appeal or request	020	3	Abdelaziz Bouteflika	Elite,Government,Executive Office,Executive,Ideological,Parties,(National) Major Party,Far Left	Algeria	49148155	1	Reuters News	Algiers		Wilaya d' Alger	Algeria	36.7525	3.04197
34099329	2019-03-19	Activist (Algeria)	Nongovernmental Organizations / Activists,Human Rights NGOs,Nongovernmental Organization (International),Human Rights IGOs	Algeria	Make an appeal or request	020	3	Military (Algeria)	Government,Military	Algeria	49148155	1	Reuters News	Algiers		Wilaya d' Alger	Algeria	36.7525	3.04197
34099380	2019-03-19	Election Commission (India)	Executive,Elections Ministry,Government	India	Consult	040	1	Representatives (India)	Government,Legislative / Parliamentary	India	49148158	1	Indo-Asian News Service	New Delhi		National Capital Territory of Delhi	India	28.6358	77.2244
34099381	2019-03-19	Representatives (India)	Government,Legislative / Parliamentary	India	Consult	040	1	Election Commission (India)	Executive,Elections Ministry,Government	India	49148158	1	Indo-Asian News Service	New Delhi		National Capital Territory of Delhi	India	28.6358	77.2244
34099341	2019-03-19	Police (Singapore)	Government,Police	Singapore	Arrest, detain, or charge with legal action	173	-5	Citizen (Singapore)	Social,General Population / Civilian / Social	Singapore	49148166	3	Straits Times	Bedok Village			Singapore	1.3225	103.961
34099366	2019-03-19	United Nations	Global Diplomatic IGOs,Global,International Government Organization		Provide humanitarian aid	073	7.4	Citizen (Uganda)	General Population / Civilian / Social,Social	Uganda	49148168	2	Reuters News	Kampala	Kampala District	Central Region	Uganda	0.31628	32.5822
34099273	2019-03-19	Defense / Security Ministry (Japan)	Executive,Government,Defense / Security Ministry	Japan	Make statement	010	0	China		China	49148172	1	Kyodo News	Tokyo		Tokyo-to	Japan	35.6895	139.692
34099274	2019-03-19	Defense / Security Ministry (Japan)	Executive,Government,Defense / Security Ministry	Japan	Make statement	010	0	Japan		Japan	49148172	6	Kyodo News	Tokyo		Tokyo-to	Japan	35.6895	139.692
34099343	2019-03-19	Citizen (India)	General Population / Civilian / Social,Social	India	Use unconventional violence	180	-9	Narendra Modi	International Religious,Far Right,Nationalist,Ideological,Dissident,Radicals / Extremists / Fundamentalists,Opposition Major Party (Out Of Government),Parties,(National) Major Party,Hindu,Elite	India	49148173	1	Indo-Asian News Service			State of Uttar Pradesh	India	27.25	80.75
34099307	2019-03-19	Citizen (New Zealand)	General Population / Civilian / Social,Social	New Zealand	fight with small arms and light weapons	193	-10	Muslim (New Zealand)	Muslim,International Religious,Social,National Religious	New Zealand	49148182	5	Agence France-Presse			Waikato	New Zealand	-37.5	175.333
34099315	2019-03-19	Iran		Iran	Deny responsibility	016	-5	Domestic Affairs (Turkey)	Interior / Home Ministry,Executive,Government	Turkey	49148183	1	Agence France-Presse	Tehran		Tehran Province	Iran	35.6944	51.4215
34099311	2019-03-19	Ministry (Nigeria)	Government	Nigeria	Make statement	010	0	Nigeria		Nigeria	49148184	1	All Africa	Abuja		Federal Capital Territory	Nigeria	9.05785	7.49508
34099335	2019-03-19	Citizen (Nigeria)	Social,General Population / Civilian / Social	Nigeria	Criticize or denounce	111	-2	Muhammadu Buhari	International Religious,Muslim,Executive,Executive Office,Far Right,International Ethnic,Fulani / Fulbe,Parties,(National) Major Party,Government,(National) Minor Party,Ideological,Center Left,Elite	Nigeria	49148185	3	All Africa	Abuja		Federal Capital Territory	Nigeria	9.05785	7.49508
34099336	2019-03-19	Citizen (Nigeria)	Social,General Population / Civilian / Social	Nigeria	Criticize or denounce	111	-2	All Progressives Congress	Parties,(National) Major Party	Nigeria	49148185	3	All Africa	Abuja		Federal Capital Territory	Nigeria	9.05785	7.49508
34099344	2019-03-19	Insurgency (Boko Haram)	Muslim,International Religious,Insurgents,Dissident	Nigeria	Use unconventional violence	180	-9	Citizen (Nigeria)	Social,General Population / Civilian / Social	Nigeria	49148187	1	All Africa	Michika		Adamawa State	Nigeria	10.6159	13.3849
34099345	2019-03-19	Terrorist (Boko Haram)	Muslim,International Religious,Insurgents,Dissident	Nigeria	Use unconventional violence	180	-9	Citizen (Nigeria)	Social,General Population / Civilian / Social	Nigeria	49148187	2	All Africa	Michika		Adamawa State	Nigeria	10.6159	13.3849
34099296	2019-03-19	Bashir Tofa	Parties,(National) Minor Party	Nigeria	Criticize or denounce	111	-2	Government (Nigeria)	Government	Nigeria	49148188	6	All Africa			Kano State	Nigeria	11.5	8.5
34099309	2019-03-19	Director General (Nigeria)	Government	Nigeria	Reduce relations	160	-4	People's Democratic Party (Nigeria)	Parties	Nigeria	49148189	1	All Africa			Ogun State	Nigeria	7	3.58333
34099338	2019-03-19	Court Judge (Nigeria)	Judicial,Government	Nigeria	Make statement	010	0	Muhammadu Buhari	International Religious,Muslim,Executive,Executive Office,Far Right,International Ethnic,Fulani / Fulbe,Parties,(National) Major Party,Government,(National) Minor Party,Ideological,Center Left,Elite	Nigeria	49148191	1	All Africa				Nigeria	9.17583	7.18083
34099298	2019-03-19	Citizen (Nigeria)	Social,General Population / Civilian / Social	Nigeria	Make an appeal or request	020	3	Public Courts (Nigeria)	Judicial,Government	Nigeria	49148192	3	All Africa	Abuja		Federal Capital Territory	Nigeria	9.05785	7.49508
34099299	2019-03-19	Citizen (Nigeria)	Social,General Population / Civilian / Social	Nigeria	Criticize or denounce	111	-2	Muhammadu Buhari	International Religious,Muslim,Executive,Executive Office,Far Right,International Ethnic,Fulani / Fulbe,Parties,(National) Major Party,Government,(National) Minor Party,Ideological,Center Left,Elite	Nigeria	49148192	6	All Africa	Abuja		Federal Capital Territory	Nigeria	9.05785	7.49508
34099300	2019-03-19	People's Democratic Party (Nigeria)	Parties	Nigeria	Criticize or denounce	111	-2	Muhammadu Buhari	International Religious,Muslim,Executive,Executive Office,Far Right,International Ethnic,Fulani / Fulbe,Parties,(National) Major Party,Government,(National) Minor Party,Ideological,Center Left,Elite	Nigeria	49148192	6	All Africa	Abuja		Federal Capital Territory	Nigeria	9.05785	7.49508
34099301	2019-03-19	Citizen (Nigeria)	Social,General Population / Civilian / Social	Nigeria	Criticize or denounce	111	-2	All Progressives Congress	Parties,(National) Major Party	Nigeria	49148192	6	All Africa	Abuja		Federal Capital Territory	Nigeria	9.05785	7.49508
34099302	2019-03-19	People's Democratic Party (Nigeria)	Parties	Nigeria	Criticize or denounce	111	-2	All Progressives Congress	Parties,(National) Major Party	Nigeria	49148192	6	All Africa	Abuja		Federal Capital Territory	Nigeria	9.05785	7.49508
34099316	2019-03-19	Court Judge (Nigeria)	Judicial,Government	Nigeria	Accuse	112	-2	Government (Nigeria)	Government	Nigeria	49148193	1	All Africa	Abuja		Federal Capital Territory	Nigeria	9.05785	7.49508
34099278	2019-03-19	Army Chief of Staff (South Korea)	Military,Government,Army	South Korea	Express intent to meet or negotiate	036	4	China		China	49148195	1	Yonhap English News	Seoul		Seoul-teukbyeolsi	South Korea	37.5683	126.978
34099279	2019-03-19	Army Chief of Staff (South Korea)	Military,Government,Army	South Korea	Express intent to meet or negotiate	036	4	China		China	49148195	2	Yonhap English News	Beijing		Beijing Shi	China	39.9075	116.397
34099280	2019-03-19	Army Chief of Staff (South Korea)	Military,Government,Army	South Korea	Express intent to meet or negotiate	036	4	Combatant (South Korea)	Unidentified Forces	South Korea	49148195	6	Yonhap English News	Shanghai		Shanghai Shi	China	31.2222	121.458
34099342	2019-03-19	Grace Poe	Legislative / Parliamentary,Upper House,Government	Philippines	Appeal for rights	0243	-0.3	Business (Philippines)	Social,Business	Philippines	49148197	1	PNA (Philippines News Agency)	Rizal	Province of Cagayan	Cagayan Valley	Philippines	17.8486	121.347
34099376	2019-03-19	Gloria Macapagal-Arroyo	Elite,Legislative / Parliamentary,Lower House,Ideological,Opposition Major Party (Out Of Government),(National) Major Party,Parties,Government,Centrist	Philippines	Make statement	010	0	House of Representatives (Philippines)	Legislative / Parliamentary,Government	Philippines	49148198	1	PNA (Philippines News Agency)	Manila	City of Manila	National Capital Region	Philippines	14.6042	120.982
34099377	2019-03-19	Gloria Macapagal-Arroyo	Elite,Legislative / Parliamentary,Lower House,Ideological,Opposition Major Party (Out Of Government),(National) Major Party,Parties,Government,Centrist	Philippines	Express intent to meet or negotiate	036	4	Citizen (Philippines)	General Population / Civilian / Social,Social	Philippines	49148198	4	PNA (Philippines News Agency)	Taguig	Province of Rizal	Calabarzon	Philippines	14.5243	121.079
34099378	2019-03-19	Gloria Macapagal-Arroyo	Elite,Legislative / Parliamentary,Lower House,Ideological,Opposition Major Party (Out Of Government),(National) Major Party,Parties,Government,Centrist	Philippines	Express intent to meet or negotiate	036	4	House of Representatives (Philippines)	Legislative / Parliamentary,Government	Philippines	49148198	4	PNA (Philippines News Agency)	Taguig	Province of Rizal	Calabarzon	Philippines	14.5243	121.079
34099347	2019-03-19	Ministry of Tourism (Philippines)	Executive,Tourism Ministry,Government	Philippines	Make statement	010	0	Philippines		Philippines	49148199	1	PNA (Philippines News Agency)	La Trinidad	Province of Benguet	Cordillera Administrative Region	Philippines	16.455	120.588
34099348	2019-03-19	Undersecretary (Philippines)	Government	Philippines	Make statement	010	0	Philippines		Philippines	49148199	3	PNA (Philippines News Agency)	Benguet	Province of Masbate	Bicol	Philippines	12.9167	123.117
34099349	2019-03-19	Undersecretary (Philippines)	Government	Philippines	Make statement	010	0	Philippines		Philippines	49148199	5	PNA (Philippines News Agency)	Benguet	Province of Masbate	Bicol	Philippines	12.9167	123.117
34099310	2019-03-19	Shinzo Abe	International Religious,Shinto,Executive,Buddhist,Ideological,Parties,Executive Office,Center Right,(National) Major Party,Government,Elite	Japan	Make statement	010	0	Government (Japan)	Government	Japan	49148204	5	Kyodo News	Tokyo		Tokyo-to	Japan	35.6895	139.692
34099362	2019-03-19	North Korea		North Korea	Deny responsibility	016	-5	Donald Trump	Executive,Government,Executive Office	United States	49148205	6	The Korea Herald	Hanoi		Thanh Pho Ha Noi	Vietnam	21.0245	105.841
34099312	2019-03-19	Lawyer/Attorney (South Korea)	Social,Legal	South Korea	Make an appeal or request	020	3	South Korea		South Korea	49148206	2	The Korea Herald	Seoul		Seoul-teukbyeolsi	South Korea	37.5683	126.978
34099318	2019-03-19	Priyanka Gandhi	Government Major Party (In Government),Parties,(National) Major Party	India	Make statement	010	0	Employee (India)	Social,Labor	India	49148210	4	Hindustan Times			State of Uttar Pradesh	India	27.25	80.75
34099319	2019-03-19	Priyanka Gandhi	Government Major Party (In Government),Parties,(National) Major Party	India	Consult	040	1	Party President (India)	Parties	India	49148210	4	Hindustan Times			State of Uttar Pradesh	India	27.25	80.75
34099320	2019-03-19	Party President (India)	Parties	India	Consult	040	1	Priyanka Gandhi	Government Major Party (In Government),Parties,(National) Major Party	India	49148210	4	Hindustan Times			State of Uttar Pradesh	India	27.25	80.75
34099322	2019-03-19	Cabinet / Council of Ministers / Advisors (India)	Cabinet,Executive,Government	India	Make statement	010	0	Party Member (India)	Parties	India	49148212	2	Hindustan Times	Patna		State of Bihar	India	25.6022	85.1194
34099355	2019-03-19	Aleksandar Vučić	Elite,Government,Far Right,Nationalist,Executive Office,(National) Minor Party,Executive,Parties,Ideological,Center Right,(National) Major Party	Serbia	Make statement	010	0	European Commission	Regional Diplomatic IGOs,International Government Organization,Regional		49148214	5	HINA	Belgrade		Central Serbia	Serbia	44.804	20.4651
34099286	2019-03-19	Domestic Affairs (Singapore)	Government,Interior / Home Ministry,Executive	Singapore	Consult	040	1	Media (Singapore)	Social,Media	Singapore	49148215	3	Channel NewsAsia				Singapore	1.28967	103.85
34099287	2019-03-19	Media (Singapore)	Social,Media	Singapore	Consult	040	1	Domestic Affairs (Singapore)	Government,Interior / Home Ministry,Executive	Singapore	49148215	3	Channel NewsAsia				Singapore	1.28967	103.85
34099290	2019-03-19	European Court of Auditors	Global Economic/Financial/Trade IGOs,Global,International Government Organization		Make a visit	042	1.9	Lithuania		Lithuania	49148217	1	Baltic Daily	Vilnius	Vilnius	Vilniaus Apskritis	Lithuania	54.6892	25.2798
34099291	2019-03-19	Lithuania		Lithuania	Host a visit	043	2.8	European Court of Auditors	Global Economic/Financial/Trade IGOs,Global,International Government Organization		49148217	1	Baltic Daily	Vilnius	Vilnius	Vilniaus Apskritis	Lithuania	54.6892	25.2798
34099289	2019-03-19	Rimantas Šadžius	Ideological,Center Left,Parties,(National) Major Party	Lithuania	Express intent to meet or negotiate	036	4	Head of Government (Lithuania)	Government,Executive,Executive Office	Lithuania	49148217	4	Baltic Daily	Vilnius	Vilnius	Vilniaus Apskritis	Lithuania	54.6892	25.2798
34099304	2019-03-19	Armed Gang (New Zealand)	Unidentified Forces	New Zealand	Consult	040	1	Legislature (New Zealand)	Government,Legislative / Parliamentary	New Zealand	49148219	1	Agence France-Presse	Christchurch	Christchurch City	Canterbury	New Zealand	-43.5333	172.633
34099305	2019-03-19	Legislature (New Zealand)	Government,Legislative / Parliamentary	New Zealand	Consult	040	1	Armed Gang (New Zealand)	Unidentified Forces	New Zealand	49148219	1	Agence France-Presse	Christchurch	Christchurch City	Canterbury	New Zealand	-43.5333	172.633
34099321	2019-03-19	Business (China)	Social,Business	China	Cooperate economically	061	6.4	China		China	49148225	5	Xinhua News Agency	Shanghai		Shanghai Shi	China	31.2222	121.458
34099333	2019-03-19	Villager (Afghanistan)	General Population / Civilian / Social,Social	Afghanistan	Provide humanitarian aid	073	7.4	Citizen (Afghanistan)	General Population / Civilian / Social,Social	Afghanistan	49148226	4	Xinhua News Agency	Shatu		Daykundi	Afghanistan	34.2363	66.355
34099306	2019-03-19	Zambia		Zambia	Make statement	010	0	Africa			49148227	3	Xinhua News Agency	Lusaka		Lusaka Province	Zambia	-15.4067	28.2871
34099308	2019-03-19	Foreign Affairs (Russia)	Executive,Government,Foreign Ministry	Russian Federation	Criticize or denounce	111	-2	Russia		Russian Federation	49148230	4	ITAR Tass	Moscow		Moskva	Russian Federation	55.7522	37.6156
34099379	2019-03-19	Taliban	International Religious,Ideological,Dissident,Sunni,Insurgents,Fundamentalist	Afghanistan	Use conventional military force	190	-10	Afghanistan		Afghanistan	49148231	3	ITAR Tass			Badghis	Afghanistan	35	63.75
34099293	2019-03-19	Anders Breivik	Criminals / Gangs,Dissident	Norway	Conduct suicide, car, or other non-military bombing	183	-10	Head of Government (Norway)	Executive Office,Government,Executive	Norway	49148241	6	The New York Times	Oslo	Oslo	Oslo County	Norway	59.9127	10.7461
34099272	2019-03-19	Police (South Africa)	Government,Police	South Africa	Arrest, detain, or charge with legal action	173	-5	Citizen (South Africa)	General Population / Civilian / Social,Social	South Africa	49148242	6	The New York Times	Umzimkhulu	Sisonke District Municipality	Province of KwaZulu-Natal	South Africa	-30.2917	29.7377
34099361	2019-03-19	Citizen (Israel)	Social,General Population / Civilian / Social	Israel	Use unconventional violence	180	-9	Citizen (Palestinian Territory, Occupied)	Social,General Population / Civilian / Social	Occupied Palestinian Territory	49148246	4	The New York Times	Gaza		Gaza Strip	Occupied Palestinian Territory	31.5	34.4667
34099363	2019-03-19	Édouard Philippe	Executive,Government,Executive Office,Elite	France	Make statement	010	0	France		France	49148248	3	The New York Times	Champs	Departement de l'Aisne	Region Picardie	France	49.5408	3.25428
34099364	2019-03-19	Protester (France)	Dissident,Protestors / Popular Opposition / Mobs	France	Demonstrate or rally	141	-6.5	Unspecified Actor	Unspecified		49148248	5	The New York Times	Paris	Paris	Region Ile-de-France	France	48.8534	2.3488
34099281	2019-03-19	Head of Government (Mozambique)	Executive Office,Executive,Government	Mozambique	Make statement	010	0	Mozambique		Mozambique	49148249	6	The New York Times	Beira		Sofala Province	Mozambique	-19.8436	34.8389
34099277	2019-03-19	Court Judge (Italy)	Judicial,Government	Italy	Arrest, detain, or charge with legal action	173	-5	Men (Italy)	General Population / Civilian / Social,Social	Italy	49148269	2	The New York Times	Rome	Provincia di Roma	Lazio	Italy	41.8947	12.4839
34099275	2019-03-19	Court Judge (Italy)	Judicial,Government	Italy	Make pessimistic comment	012	-0.4	Citizen (Italy)	General Population / Civilian / Social,Social	Italy	49148269	4	The New York Times	Rome	Provincia di Roma	Lazio	Italy	41.8947	12.4839
34099276	2019-03-19	Italy		Italy	Reject	120	-4	Appeals Court (Italy)	Judicial,Government	Italy	49148269	4	The New York Times	Rome	Provincia di Roma	Lazio	Italy	41.8947	12.4839
34099288	2019-03-19	Bashishtha Narayan Singh	Opposition Major Party (Out Of Government),Parties,(National) Major Party	India	Make statement	010	0	National Democratic Front (India)	Parties	India	49148277	1	Hindustan Times	Patna		State of Bihar	India	25.6022	85.1194
34099334	2019-03-19	Employee (India)	Social,Labor	India	Make statement	010	0	Nitish Kumar	Local,Provincial,Government,Opposition Major Party (Out Of Government),Parties,(National) Major Party,Elite	India	49148278	5	Hindustan Times	Gaya		State of Bihar	India	24.7969	85.0039
34099294	2019-03-19	Yogi Adityanath	Local,Provincial,Government	India	Make statement	010	0	India		India	49148282	1	Indo-Asian News Service	Lucknow		State of Uttar Pradesh	India	26.8393	80.9231
34099295	2019-03-19	Yogi Adityanath	Local,Provincial,Government	India	Accuse	112	-2	Congress (India)	Government,Legislative / Parliamentary	India	49148282	1	Indo-Asian News Service	Lucknow		State of Uttar Pradesh	India	26.8393	80.9231
34099340	2019-03-19	United States		United States	Grant diplomatic recognition	054	6	China		China	49148284	2	Associated Press Newswires	Beijing		Beijing Shi	China	39.9075	116.397
34099449	2019-03-19	China		China	Sign formal agreement	057	8	International Government Organizations	International Government Organization		49148350	3	Xinhua News Agency	Beijing		Beijing Shi	China	39.9075	116.397
34099450	2019-03-19	International Government Organizations	International Government Organization		Sign formal agreement	057	8	China		China	49148350	3	Xinhua News Agency	Beijing		Beijing Shi	China	39.9075	116.397
34099457	2019-03-19	Citizen (United Arab Emirates)	General Population / Civilian / Social,Social	United Arab Emirates	Make a visit	042	1.9	Uzbekistan		Uzbekistan	49148351	2	Xinhua News Agency	Tashkent		Toshkent Shahri	Uzbekistan	41.2646	69.2163
34099460	2019-03-19	Uzbekistan		Uzbekistan	Host a visit	043	2.8	Citizen (United Arab Emirates)	General Population / Civilian / Social,Social	United Arab Emirates	49148351	2	Xinhua News Agency	Tashkent		Toshkent Shahri	Uzbekistan	41.2646	69.2163
34099458	2019-03-19	Uzbekistan		Uzbekistan	Engage in diplomatic cooperation	050	3.5	United Arab Emirates		United Arab Emirates	49148351	3	Xinhua News Agency	Tashkent		Toshkent Shahri	Uzbekistan	41.2646	69.2163
34099459	2019-03-19	United Arab Emirates		United Arab Emirates	Engage in diplomatic cooperation	050	3.5	Uzbekistan		Uzbekistan	49148351	3	Xinhua News Agency	Tashkent		Toshkent Shahri	Uzbekistan	41.2646	69.2163
34099463	2019-03-19	China		China	Grant diplomatic recognition	054	6	European Union	International Government Organization,Regional Diplomatic IGOs,Regional		49148352	3	Xinhua News Agency	Brussels	(Bruxelles-Capitale)	Bruxelles-Capitale	Belgium	50.8504	4.34878
34099464	2019-03-19	European Union	International Government Organization,Regional Diplomatic IGOs,Regional		Grant diplomatic recognition	054	6	China		China	49148352	3	Xinhua News Agency	Brussels	(Bruxelles-Capitale)	Bruxelles-Capitale	Belgium	50.8504	4.34878
34099421	2019-03-19	Media Personnel (Slovakia)	Social,Media	Slovakia	Make statement	010	0	Business (Slovakia)	Social,Business	Slovakia	49148355	1	TASR - Tlacova Agentura Slovenskej Republiky	Bratislava		Bratislavsky kraj	Slovakia	48.1482	17.1067
34099399	2019-03-19	Activist (Algeria)	Human Rights IGOs,Nongovernmental Organizations / Activists,Human Rights NGOs,Nongovernmental Organization (International)	Algeria	Make an appeal or request	020	3	High Ranking Military Personnel (Algeria)	Military,Government	Algeria	49148357	1	Reuters News	Algiers		Wilaya d' Alger	Algeria	36.7525	3.04197
34099400	2019-03-19	National Coordination for Change	Far Left,Ideological,Parties,(National) Major Party	Bolivia	Demand	100	-5	Military (Algeria)	Military,Government	Algeria	49148357	2	Reuters News	Algiers		Wilaya d' Alger	Algeria	36.7525	3.04197
34099430	2019-03-19	Y. Sinha	Elite,Government	India	Make an appeal or request	020	3	Main Opposition (India)	Protestors / Popular Opposition / Mobs,Dissident	India	49148362	2	Hindustan Times	Delhi		National Capital Territory of Delhi	India	28.6538	77.229
34099448	2019-03-19	Ram Nath Kovind	Executive Office,Executive,Elite,Government	India	Praise or endorse	051	3.4	Rajya Sabha	Legislative / Parliamentary,Government	India	49148363	4	Hindustan Times				India	28.6358	77.2244
34099447	2019-03-19	Cabinet / Council of Ministers / Advisors (India)	Cabinet,Executive,Government	India	Make statement	010	0	Government (India)	Government	India	49148364	1	Hindustan Times	Goa			India	15.502	73.9101
34099391	2019-03-19	Kyrgyzstan		Kyrgyzstan	Use conventional military force	190	-10	Citizen (Tajikistan)	General Population / Civilian / Social,Social	Tajikistan	49148367	5	Interfax News Service	Bishkek		Chuey Oblasty	Kyrgyzstan	42.87	74.59
34099392	2019-03-19	Citizen (Tajikistan)	General Population / Civilian / Social,Social	Tajikistan	Use unconventional violence	180	-9	Kyrgyzstan		Kyrgyzstan	49148367	5	Interfax News Service	Bishkek		Chuey Oblasty	Kyrgyzstan	42.87	74.59
34099462	2019-03-19	Lawmaker (United Kingdom)	Government,Legislative / Parliamentary	United Kingdom	Reject	120	-4	European Union	International Government Organization,Regional Diplomatic IGOs,Regional		49148370	1	Associated Press Newswires	London	Greater London	England	United Kingdom	51.5085	-0.12574
34099461	2019-03-19	Government (United Kingdom)	Government	United Kingdom	Make statement	010	0	Cabinet / Council of Ministers / Advisors (United Kingdom)	Executive,Government,Cabinet	United Kingdom	49148370	2	Associated Press Newswires	London	Greater London	England	United Kingdom	51.5085	-0.12574
34099423	2019-03-19	Citizen (Ukraine)	General Population / Civilian / Social,Social	Ukraine	Accuse of aggression	1123	-2	Military (Ukraine)	Government,Military	Ukraine	49148383	3	ITAR Tass	Talakovka		Donets'ka Oblast'	Ukraine	47.1925	37.7252
34099438	2019-03-19	Germany		Germany	Make a visit	042	1.9	Crimea		Russian Federation	49148384	2	ITAR Tass				Germany	52.5244	13.4105
34099439	2019-03-19	Crimea		Russian Federation	Host a visit	043	2.8	Germany		Germany	49148384	2	ITAR Tass				Germany	52.5244	13.4105
34099451	2019-03-19	John Bercow	(National) Major Party,Government,Parties,Legislative / Parliamentary,Lower House,Elite,Center Right,Ideological	United Kingdom	Make statement	010	0	Government (United Kingdom)	Government	United Kingdom	49148392	5	Reuters News	London	Greater London	England	United Kingdom	51.5085	-0.12574
34099424	2019-03-19	Military (Syria)	Military,Government	Syria	Use conventional military force	190	-10	Syria		Syria	49148394	1	Reuters News				United States	38.8951	-77.0364
34099386	2019-03-19	Cabinet / Council of Ministers / Advisors (India)	Cabinet,Executive,Government	India	Engage in symbolic act	017	0	Citizen (India)	General Population / Civilian / Social,Social	India	49148396	1	Indo-Asian News Service	Goa			India	15.502	73.9101
34099415	2019-03-19	China		China	Praise or endorse	051	3.4	United Nations	International Government Organization,Global Diplomatic IGOs,Global		49148397	6	Indo-Asian News Service	Beijing		Beijing Shi	China	39.9075	116.397
34099387	2019-03-19	Estonia		Estonia	Engage in negotiation	046	7	China		China	49148400	1	Baltic Daily	Tallinn	Tallinna linn	Harjumaa	Estonia	59.437	24.7535
34099389	2019-03-19	China		China	Engage in negotiation	046	7	Estonia		Estonia	49148400	1	Baltic Daily	Tallinn	Tallinna linn	Harjumaa	Estonia	59.437	24.7535
34099388	2019-03-19	Estonia		Estonia	Engage in negotiation	046	7	China		China	49148400	4	Baltic Daily	Tallinn	Tallinna linn	Harjumaa	Estonia	59.437	24.7535
34099390	2019-03-19	China		China	Engage in negotiation	046	7	Estonia		Estonia	49148400	4	Baltic Daily	Tallinn	Tallinna linn	Harjumaa	Estonia	59.437	24.7535
34099409	2019-03-19	Protester (Australia)	Protestors / Popular Opposition / Mobs,Dissident	Australia	Protest violently, riot	145	-7.5	Police (Australia)	Government,Police	Australia	49148411	2	Australian Associated Press	Melbourne	Melbourne	State of Victoria	Australia	-37.814	144.963
34099410	2019-03-19	Police (Australia)	Government,Police	Australia	Use tactics of violent repression	175	-9	Protester (Australia)	Protestors / Popular Opposition / Mobs,Dissident	Australia	49148411	2	Australian Associated Press	Melbourne	Melbourne	State of Victoria	Australia	-37.814	144.963
34099408	2019-03-19	Citizen (Australia)	Social,General Population / Civilian / Social	Australia	Demonstrate or rally	141	-6.5	Unspecified Actor	Unspecified		49148411	4	Australian Associated Press	Ararat	Ararat	State of Victoria	Australia	-37.2854	142.927
34099425	2019-03-19	Human Rights Watch	NGO Ministry,Human Rights IGOs,Government,Nongovernmental Organization (International),Executive		Appeal for intelligence	0214	3.4	United Nations Human Rights Council	Global Diplomatic IGOs,International Government Organization,Global,Global Human Rights IGOs		49148415	2	EFE News Service	Manila	City of Manila	National Capital Region	Philippines	14.6042	120.982
34099426	2019-03-19	Philippines		Philippines	Engage in diplomatic cooperation	050	3.5	United Nations Human Rights Council	Global Diplomatic IGOs,International Government Organization,Global,Global Human Rights IGOs		49148415	3	EFE News Service	Manila	City of Manila	National Capital Region	Philippines	14.6042	120.982
34099427	2019-03-19	The Hague	Local,Municipal,Government	Netherlands	Investigate	090	-2	Citizen (Philippines)	General Population / Civilian / Social,Social	Philippines	49148415	4	EFE News Service	Manila	City of Manila	National Capital Region	Philippines	14.6042	120.982
34099431	2019-03-19	Lawyer/Attorney (Romania)	Legal,Social	Romania	Appeal for easing of administrative sanctions	0251	-0.3	Constitutional Court (Romania)	Government,Judicial	Romania	49148419	4	AGERPRES	Bucharest	Municipiul Bucuresti	Bucuresti	Romania	44.4323	26.1063
34099432	2019-03-19	Court Judge (Romania)	Government,Judicial	Romania	Ease administrative sanctions	081	5	Treasury/Finance Ministry (Romania)	Finance / Economy / Commerce / Trade Ministry,Executive,Government	Romania	49148419	6	AGERPRES	Bucharest	Municipiul Bucuresti	Bucuresti	Romania	44.4323	26.1063
34099454	2019-03-19	Armed Gang (Netherlands)	Unidentified Forces	Netherlands	Use unconventional violence	180	-9	Citizen (Netherlands)	General Population / Civilian / Social,Social	Netherlands	49148421	1	Reuters News	Utrecht	Gemeente Utrecht	Provincie Utrecht	Netherlands	52.0908	5.12222
34099455	2019-03-19	Armed Gang (Netherlands)	Unidentified Forces	Netherlands	fight with small arms and light weapons	193	-10	Netherlands		Netherlands	49148421	1	Reuters News	Utrecht	Gemeente Utrecht	Provincie Utrecht	Netherlands	52.0908	5.12222
34099434	2019-03-19	Election Commission (India)	Executive,Elections Ministry,Government	India	Make statement	010	0	Party Member (India)	Parties	India	49148425	1	Hindustan Times			State of Rajasthan	India	26	74
34099435	2019-03-19	Lok Sabha	Legislative / Parliamentary,Government	India	Make statement	010	0	Election Commission (India)	Executive,Elections Ministry,Government	India	49148425	4	Hindustan Times			State of Rajasthan	India	26	74
34099456	2019-03-19	Police (Netherlands)	Police,Government	Netherlands	Arrest, detain, or charge with legal action	173	-5	Citizen (Netherlands)	General Population / Civilian / Social,Social	Netherlands	49148431	1	Associated Press Newswires	Utrecht	Gemeente Utrecht	Provincie Utrecht	Netherlands	52.0908	5.12222
34099453	2019-03-19	United Nations	International Government Organization,Global Diplomatic IGOs,Global		Impose embargo, boycott, or sanctions	163	-8	North Korea		North Korea	49148441	6	The Korea Herald	Pyongyang		P'yongyang-si	North Korea	39.0339	125.754
34099413	2019-03-19	Cabinet / Council of Ministers / Advisors (India)	Cabinet,Executive,Government	India	Make statement	010	0	Manohar Parrikar	Local,Legislative / Parliamentary,(National) Major Party,Parties,Provincial,Government,Opposition Major Party (Out Of Government)	India	49148443	5	Hindustan Times	Goa			India	15.502	73.9101
34099419	2019-03-19	Bharatiya Janata	Opposition Major Party (Out Of Government),(National) Major Party,Parties	India	Criticize or denounce	111	-2	Congress (India)	Legislative / Parliamentary,Government	India	49148445	1	Hindustan Times	Srinagar		State of Jammu and Kashmir	India	34.0884	74.803
34099420	2019-03-19	Bharatiya Janata	Opposition Major Party (Out Of Government),(National) Major Party,Parties	India	Accuse	112	-2	Congress (India)	Legislative / Parliamentary,Government	India	49148445	6	Hindustan Times	Srinagar		State of Jammu and Kashmir	India	34.0884	74.803
34099395	2019-03-19	Militant (India)	Unidentified Forces	India	fight with small arms and light weapons	193	-10	Men (India)	General Population / Civilian / Social,Social	India	49148446	1	Hindustan Times	Pulwama		State of Jammu and Kashmir	India	33.8741	74.8996
34099393	2019-03-19	Media Personnel (India)	Media,Social	India	Make statement	010	0	Militant (India)	Unidentified Forces	India	49148446	3	Hindustan Times			State of Jammu and Kashmir	India	33.9167	76.6667
34099396	2019-03-19	Militant (India)	Unidentified Forces	India	fight with small arms and light weapons	193	-10	Citizen (India)	General Population / Civilian / Social,Social	India	49148446	3	Hindustan Times			State of Jammu and Kashmir	India	33.9167	76.6667
34099394	2019-03-19	Police (India)	Police,Government	India	Make statement	010	0	Armed Gang (India)	Unidentified Forces	India	49148446	5	Hindustan Times	Pulwama		State of Jammu and Kashmir	India	33.8741	74.8996
34099397	2019-03-19	Armed Gang (India)	Unidentified Forces	India	fight with small arms and light weapons	193	-10	Citizen (India)	General Population / Civilian / Social,Social	India	49148446	5	Hindustan Times	Pulwama		State of Jammu and Kashmir	India	33.8741	74.8996
34099433	2019-03-19	Head of Government (India)	Executive Office,Executive,Government	India	Express intent to provide humanitarian aid	0333	5.2	Refugee (India)	Refugees / Displaced,Social	India	49148450	4	Hindustan Times	Jammu		State of Jammu and Kashmir	India	32.7357	74.8691
34099465	2019-03-19	Employee (India)	Labor,Social	India	Make statement	010	0	Nitish Kumar	Local,(National) Major Party,Parties,Provincial,Government,Elite,Opposition Major Party (Out Of Government)	India	49148452	5	Hindustan Times	Gaya		State of Bihar	India	24.7969	85.0039
34099436	2019-03-19	Police (India)	Police,Government	India	Arrest, detain, or charge with legal action	173	-5	Education (India)	Education,Social	India	49148455	2	Indo-Asian News Service	Srinagar		State of Jammu and Kashmir	India	34.0884	74.803
34099416	2019-03-19	Linas Antanas Linkevičius	(National) Major Party,Foreign Ministry,Parties,Executive,Government,Center Left,Ideological	Lithuania	Make a visit	042	1.9	Belgium		Belgium	49148459	1	Lithuanian News Agency - ELTA	Brussels	(Bruxelles-Capitale)	Bruxelles-Capitale	Belgium	50.8504	4.34878
34099417	2019-03-19	Belgium		Belgium	Host a visit	043	2.8	Linas Antanas Linkevičius	(National) Major Party,Foreign Ministry,Parties,Executive,Government,Center Left,Ideological	Lithuania	49148459	1	Lithuanian News Agency - ELTA	Brussels	(Bruxelles-Capitale)	Bruxelles-Capitale	Belgium	50.8504	4.34878
34099401	2019-03-19	Dalia Grybauskaitė	Elite,Executive,Executive Office,Government	Lithuania	Consult	040	1	Foreign Affairs (Argentina)	Government,Executive,Foreign Ministry	Argentina	49148460	4	Lithuanian News Agency - ELTA	Vilnius	Vilnius	Vilniaus Apskritis	Lithuania	54.6892	25.2798
34099402	2019-03-19	Foreign Affairs (Argentina)	Government,Executive,Foreign Ministry	Argentina	Consult	040	1	Dalia Grybauskaitė	Elite,Executive,Executive Office,Government	Lithuania	49148460	4	Lithuanian News Agency - ELTA	Vilnius	Vilnius	Vilniaus Apskritis	Lithuania	54.6892	25.2798
34099467	2019-03-19	France		France	Arrest, detain, or charge with legal action	173	-5	Citizen (France)	General Population / Civilian / Social,Social	France	49148479	6	All Africa				France	48.8534	2.3486
34099442	2019-03-19	Governor (Angola)	Government,Provincial,Local	Angola	Make an appeal or request	020	3	Citizen (Angola)	Social,General Population / Civilian / Social	Angola	49148480	1	All Africa	Saurimo		Lunda Sul	Angola	-9.66078	20.3916
34099441	2019-03-19	Governor (Angola)	Government,Provincial,Local	Angola	Make statement	010	0	Government (Angola)	Government	Angola	49148480	3	All Africa	Saurimo		Lunda Sul	Angola	-9.66078	20.3916
34099443	2019-03-19	Governor (Angola)	Government,Provincial,Local	Angola	Make an appeal or request	020	3	Citizen (Angola)	Social,General Population / Civilian / Social	Angola	49148480	4	All Africa	Saurimo		Lunda Sul	Angola	-9.66078	20.3916
34099573	2019-03-19	China		China	Express intent to provide material aid	033	5.2	Mozambique		Mozambique	49148549	1	Xinhua News Agency	Beijing		Beijing Shi	China	39.9075	116.397
34099574	2019-03-19	China		China	Express intent to provide material aid	033	5.2	Malawi		Malawi	49148549	1	Xinhua News Agency	Beijing		Beijing Shi	China	39.9075	116.397
34099575	2019-03-19	China		China	Express intent to provide material aid	033	5.2	Zimbabwe		Zimbabwe	49148549	1	Xinhua News Agency	Beijing		Beijing Shi	China	39.9075	116.397
34099572	2019-03-19	Head of Government (Mozambique)	Executive Office,Government,Executive	Mozambique	Make statement	010	0	Mozambique		Mozambique	49148549	4	Xinhua News Agency	Beijing		Beijing Shi	China	39.9075	116.397
34099567	2019-03-19	Emmerson Mnangagwa	Elite,Ideological,(National) Major Party,Parties,Executive Office,Government,Cabinet,Far Left,Executive,Defense / Security Ministry	Zimbabwe	Express intent to meet or negotiate	036	4	Zimbabwe		Zimbabwe	49148550	3	Xinhua News Agency			Manicaland Province	Zimbabwe	-19	32.5
34099493	2019-03-19	Ministry (Germany)	Government	Germany	Make an appeal or request	020	3	United Kingdom		United Kingdom	49148556	1	Reuters News	London	Greater London	England	United Kingdom	51.5085	-0.12574
34099472	2019-03-19	Member of the Judiciary (Spain)	Judicial,Government	Spain	Reject	120	-4	Spain		Spain	49148558	2	Reuters News	Zaragoza	Provincia de Zaragoza	Aragon	Spain	41.6561	-0.87734
34099508	2019-03-19	Sergey Viktorovich Lavrov	Foreign Ministry,Ideological,(National) Major Party,Government,Parties,Cabinet,Center Right,Executive	Russian Federation	Make statement	010	0	Russia		Russian Federation	49148561	1	Reuters News	Moscow		Moskva	Russian Federation	55.7522	37.6156
34099518	2019-03-19	Head of Government (India)	Executive Office,Government,Executive	India	Consult	040	1	Bharatiya Janata	(National) Major Party,Parties,Opposition Major Party (Out Of Government)	India	49148569	6	Hindustan Times	Pimpri		State of Gujarat	India	20.7978	73.5854
34099519	2019-03-19	Bharatiya Janata	(National) Major Party,Parties,Opposition Major Party (Out Of Government)	India	Consult	040	1	Head of Government (India)	Executive Office,Government,Executive	India	49148569	6	Hindustan Times	Pimpri		State of Gujarat	India	20.7978	73.5854
34099522	2019-03-19	Military (Syria)	Military,Government	Syria	Use conventional military force	190	-10	Islamic State of Iraq and the Levant	Muslim,Ideological,Dissident,Insurgents,International Religious,Sunni,Fundamentalist	Iraq	49148577	1	Associated Press Newswires	Beirut		Beyrouth	Lebanon	33.8889	35.4944
34099523	2019-03-19	Islamic State of Iraq and the Levant	Muslim,Ideological,Dissident,Insurgents,International Religious,Sunni,Fundamentalist	Iraq	Use conventional military force	190	-10	Military (Syria)	Military,Government	Syria	49148577	1	Associated Press Newswires	Beirut		Beyrouth	Lebanon	33.8889	35.4944
34099561	2019-03-19	Matteo Salvini	Parties,(National) Minor Party,Ideological,Secular	Italy	Make statement	010	0	Immigrants (Italy)	General Population / Civilian / Social,Social	Italy	49148578	2	Associated Press Newswires	Milan	Provincia di Milano	Regione Lombardia	Italy	45.4643	9.18951
34099497	2019-03-19	Canada		Canada	Make statement	010	0	Court Judge (Canada)	Government,Judicial	Canada	49148587	1	The Toronto Star			Ontario	Canada	49.2501	-84.4998
34099498	2019-03-19	Canada		Canada	Make statement	010	0	Court Judge (Canada)	Government,Judicial	Canada	49148587	4	The Toronto Star			Ontario	Canada	49.2501	-84.4998
34099474	2019-03-19	New Democratic Party	Center Left,(National) Major Party,Ideological,Parties	Canada	Appeal for intelligence	0214	3.4	Ontario Provincial Police	Police,Government,Provincial Divisions	Canada	49148589	1	The Toronto Star			Ontario	Canada	49.2501	-84.4998
34099473	2019-03-19	New Democratic Party	Center Left,(National) Major Party,Ideological,Parties	Canada	Make an appeal or request	020	3	Head of Government (Canada)	Executive Office,Government,Executive	Canada	49148590	1	The Toronto Star	Ottawa		Ontario	Canada	45.4112	-75.6981
34099543	2019-03-19	Emmanuel Macron	Government,Executive Office,Executive,Elite	Andorra	Consult	040	1	Police (France)	Police,Government	France	49148597	3	The Toronto Star	Champs-Elysees	Paris	Region Ile-de-France	France	48.8699	2.30721
34099545	2019-03-19	Police (France)	Police,Government	France	Consult	040	1	Emmanuel Macron	Government,Executive Office,Executive,Elite	Andorra	49148597	3	The Toronto Star	Champs-Elysees	Paris	Region Ile-de-France	France	48.8699	2.30721
34099544	2019-03-19	Protester (France)	Dissident,Protestors / Popular Opposition / Mobs	France	Demonstrate or rally	141	-6.5	Unspecified Actor	Unspecified		49148597	5	The Toronto Star	Paris	Paris	Region Ile-de-France	France	48.8534	2.3488
34099552	2019-03-19	Media Personnel (New Zealand)	Media,Social	New Zealand	Praise or endorse	051	3.4	Jacinda Ardern	(National) Major Party,Government,Parties,Ideological,Executive Office,Executive,Center Left,Unicameral,Elite,Legislative / Parliamentary	New Zealand	49148599	5	The Toronto Star	Christchurch	Christchurch City	Canterbury	New Zealand	-43.5333	172.633
34099496	2019-03-19	Healthcare Facility (Canada)	Social,Medical / Health	Canada	Arrest, detain, or charge with legal action	173	-5	Women (Canada)	Social,General Population / Civilian / Social	Canada	49148604	1	The Toronto Star	Toronto		Ontario	Canada	43.7001	-79.4163
34099509	2019-03-19	Military (Ukraine)	Government,Military	Ukraine	fight with small arms and light weapons	193	-10	Ukraine		Ukraine	49148609	1	ITAR Tass	Donetsk		Donets'ka Oblast'	Ukraine	48.023	37.8022
34099503	2019-03-19	Senate (Philippines)	Upper House,Government,Legislative / Parliamentary	Philippines	Make statement	010	0	Rodrigo Duterte	Government,Executive,Executive Office	Philippines	49148620	1	PNA (Philippines News Agency)	Manila	City of Manila	National Capital Region	Philippines	14.6042	120.982
34099504	2019-03-19	Senate (Philippines)	Upper House,Government,Legislative / Parliamentary	Philippines	Make statement	010	0	International Criminal Court	Global,International Government Organization,Global Law / Justice / Judicial IGOs		49148620	2	PNA (Philippines News Agency)	Manila	City of Manila	National Capital Region	Philippines	14.6042	120.982
34099527	2019-03-19	Head of Government (Philippines)	Government,Executive,Executive Office	Philippines	Make statement	010	0	Philippines		Philippines	49148622	1	PNA (Philippines News Agency)	Manila	City of Manila	National Capital Region	Philippines	14.6042	120.982
34099528	2019-03-19	Undersecretary (Philippines)	Government	Philippines	Make statement	010	0	Government (Philippines)	Government	Philippines	49148622	5	PNA (Philippines News Agency)	Manila	City of Manila	National Capital Region	Philippines	14.6042	120.982
34099530	2019-03-19	United Nations	Global Diplomatic IGOs,Global,International Government Organization		Provide humanitarian aid	073	7.4	Citizen (Uganda)	General Population / Civilian / Social,Social	Uganda	49148633	3	Reuters News	Kampala	Kampala District	Central Region	Uganda	0.31628	32.5822
34099554	2019-03-19	Emperor Akihito	International Religious,Government,Shinto,Elite,Executive Office,Executive	Japan	Consult	040	1	Representatives (Japan)	Government,Legislative / Parliamentary	Japan	49148634	2	Kyodo News	Tokyo		Tokyo-to	Japan	35.6895	139.692
34099555	2019-03-19	Representatives (Japan)	Government,Legislative / Parliamentary	Japan	Consult	040	1	Emperor Akihito	International Religious,Government,Shinto,Elite,Executive Office,Executive	Japan	49148634	2	Kyodo News	Tokyo		Tokyo-to	Japan	35.6895	139.692
34099569	2019-03-19	Congress (India)	Government,Legislative / Parliamentary	India	Consult	040	1	Company - Owner or Operator (India)	Business,Social	India	49148638	4	Indo-Asian News Service	Malda		State of Chhattisgarh	India	20.9549	82.9347
34099570	2019-03-19	Congress (India)	Government,Legislative / Parliamentary	India	Demonstrate or rally	141	-6.5	Government (India)	Government	India	49148638	4	Indo-Asian News Service	Malda		State of Chhattisgarh	India	20.9549	82.9347
34099571	2019-03-19	Company - Owner or Operator (India)	Business,Social	India	Consult	040	1	Congress (India)	Government,Legislative / Parliamentary	India	49148638	4	Indo-Asian News Service	Malda		State of Chhattisgarh	India	20.9549	82.9347
34099512	2019-03-19	Almazbek Atambayev	Parties,Elite,Center Left,Ideological,(National) Major Party	Kyrgyzstan	Make statement	010	0	Social Democratic Party of Kyrgyzstan	Parties,Center Left,Ideological,(National) Major Party	Kyrgyzstan	49148644	3	Interfax News Service	Bishkek		Chuey Oblasty	Kyrgyzstan	42.87	74.59
34099577	2019-03-19	Citizen (Uganda)	General Population / Civilian / Social,Social	Uganda	Accuse	112	-2	Uganda People's Defence Force	Military,Government	Uganda	49148647	5	Associated Press Newswires	Kampala	Kampala District	Central Region	Uganda	0.31628	32.5822
34099578	2019-03-19	Government (Rwanda)	Government	Rwanda	Reduce relations	160	-4	Uganda		Uganda	49148647	5	Associated Press Newswires	Kampala	Kampala District	Central Region	Uganda	0.31628	32.5822
34099475	2019-03-19	Police (Netherlands)	Police,Government	Netherlands	Investigate	090	-2	Criminal (Turkey)	Dissident,Criminals / Gangs	Turkey	49148651	1	Agence France-Presse	Utrecht	Gemeente Utrecht	Provincie Utrecht	Netherlands	52.0908	5.12222
34099476	2019-03-19	Police (Netherlands)	Police,Government	Netherlands	Arrest, detain, or charge with legal action	173	-5	Men (Netherlands)	General Population / Civilian / Social,Social	Netherlands	49148651	4	Agence France-Presse	Utrecht	Gemeente Utrecht	Provincie Utrecht	Netherlands	52.0908	5.12222
34099562	2019-03-19	United Nations	Global Diplomatic IGOs,Global,International Government Organization		Make an appeal or request	020	3	Head of Government (Democratic Republic of Congo)	Executive,Government,Executive Office	Democratic Republic of Congo	49148655	1	All Africa				Democratic Republic of Congo	-4.47223	15.8836
34099491	2019-03-19	Citizen (Mali)	General Population / Civilian / Social,Social	Mali	Occupy territory	192	-9.5	Mali		Mali	49148658	1	All Africa	Dioura		Mopti Region	Mali	14.8252	-5.2547
34099490	2019-03-19	Sangare Tiemoko	Government,Cabinet,Executive,Environment Ministry	Mali	Make a visit	042	1.9	Mali		Mali	49148658	2	All Africa	Dioura		Mopti Region	Mali	14.8252	-5.2547
34099492	2019-03-19	Mali		Mali	Host a visit	043	2.8	Sangare Tiemoko	Government,Cabinet,Executive,Environment Ministry	Mali	49148658	2	All Africa	Dioura		Mopti Region	Mali	14.8252	-5.2547
34099477	2019-03-19	Citizen (Algeria)	General Population / Civilian / Social,Social	Algeria	Demonstrate or rally	141	-6.5	Government (Algeria)	Government	Algeria	49148663	3	All Africa				Algeria	36.7525	3.04197
34099521	2019-03-19	Lawyer/Attorney (Zimbabwe)	Social,Legal	Zimbabwe	Impose administrative sanctions	172	-5	Citizen (Zambia)	Social,General Population / Civilian / Social	Zambia	49148665	1	All Africa	Bulawayo		Bulawayo Province	Zimbabwe	-20.15	28.5833
34099517	2019-03-19	Bharatiya Janata	(National) Major Party,Parties,Opposition Major Party (Out Of Government)	India	Make statement	010	0	Narendra Modi	Ideological,International Religious,Dissident,Far Right,Elite,Hindu,Radicals / Extremists / Fundamentalists,Nationalist,(National) Major Party,Parties,Opposition Major Party (Out Of Government)	India	49148680	1	Indo-Asian News Service	New Delhi		National Capital Territory of Delhi	India	28.6358	77.2244
34099471	2019-03-19	United States		United States	Express intent to meet or negotiate	036	4	Taiwan		Taiwan	49148686	3	Central News Agency English News	Taipei		Taipei	Taiwan	25.0478	121.532
34099565	2019-03-19	Ko Wen-je	Local,Municipal,Government	Taiwan	Make a visit	042	1.9	United States		United States	49148687	2	Central News Agency English News			Washington D.C.	United States	38.9171	-77.0003
34099566	2019-03-19	United States		United States	Host a visit	043	2.8	Ko Wen-je	Local,Municipal,Government	Taiwan	49148687	2	Central News Agency English News			Washington D.C.	United States	38.9171	-77.0003
34099563	2019-03-19	Armed Gang (New Zealand)	Unidentified Forces	New Zealand	Consult	040	1	Legislature (New Zealand)	Government,Legislative / Parliamentary	New Zealand	49148692	6	Agence France-Presse	Christchurch	Christchurch City	Canterbury	New Zealand	-43.5333	172.633
34099564	2019-03-19	Legislature (New Zealand)	Government,Legislative / Parliamentary	New Zealand	Consult	040	1	Armed Gang (New Zealand)	Unidentified Forces	New Zealand	49148692	6	Agence France-Presse	Christchurch	Christchurch City	Canterbury	New Zealand	-43.5333	172.633
34099481	2019-03-19	Jacinda Ardern	(National) Major Party,Government,Parties,Ideological,Executive Office,Executive,Center Left,Unicameral,Elite,Legislative / Parliamentary	New Zealand	Make an appeal or request	020	3	New Zealand		New Zealand	49148698	1	Australian Broadcasting Corporation (ABC) News	Christchurch	Christchurch City	Canterbury	New Zealand	-43.5333	172.633
