Event ID	Event Date	Source Name	Source Sectors	Source Country	Event Text	CAMEO Code	Intensity	Target Name	Target Sectors	Target Country	Story ID	Sentence Number	Publisher	City	District	Province	Country	Latitude	Longitude
34076339	2019-03-05	Fatah	Dissident,Parties,(National) Major Party,Ideological,Center Left	Occupied Palestinian Territory	Criticize or denounce	111	-2	Terrorist Organization (Hamas)	Nongovernmental Organization (International),Muslim,Dissident,(National) Major Party,Parties,International Religious	Occupied Palestinian Territory	49098881	2	The Jerusalem Post				Occupied Palestinian Territory	31.9216	35.2033
34076340	2019-03-05	Terrorist Organization (Hamas)	Nongovernmental Organization (International),Muslim,Dissident,(National) Major Party,Parties,International Religious	Occupied Palestinian Territory	Criticize or denounce	111	-2	Fatah	Dissident,Parties,(National) Major Party,Ideological,Center Left	Occupied Palestinian Territory	49098881	2	The Jerusalem Post				Occupied Palestinian Territory	31.9216	35.2033
34076330	2019-03-05	Benjamin Netanyahu	Parties,(National) Major Party,Foreign Ministry,Ideological,Center Right,Jews,Executive,International Ethnic,Government,Elite,Executive Office	Israel	Make a visit	042	1.9	Afghanistan		Afghanistan	49098884	1	The Jerusalem Post	Kabul		Kabul	Afghanistan	34.5281	69.1723
34076331	2019-03-05	Afghanistan		Afghanistan	Host a visit	043	2.8	Benjamin Netanyahu	Parties,(National) Major Party,Foreign Ministry,Ideological,Center Right,Jews,Executive,International Ethnic,Government,Elite,Executive Office	Israel	49098884	1	The Jerusalem Post	Kabul		Kabul	Afghanistan	34.5281	69.1723
34076338	2019-03-05	Military (Palestinian Territory, Occupied)	Military,Government	Occupied Palestinian Territory	fight with small arms and light weapons	193	-10	Citizen (Palestinian Territory, Occupied)	Social,General Population / Civilian / Social	Occupied Palestinian Territory	49098891	2	The Jerusalem Post			West Bank	Occupied Palestinian Territory	31.6667	35.25
34076332	2019-03-05	Canada		Canada	Mobilize or increase armed forces	154	-7.2	Middle East			49098892	3	The Jerusalem Post				Canada	45.4112	-75.6981
34076368	2019-03-05	Samoa		Samoa	Praise or endorse	051	3.4	Israel		Israel	49098893	1	The Jerusalem Post				Samoa	-13.8333	-171.767
34076369	2019-03-05	Israel		Israel	Sign formal agreement	057	8	Samoa		Samoa	49098893	3	The Jerusalem Post				Israel	31.779	35.2253
34076370	2019-03-05	Samoa		Samoa	Sign formal agreement	057	8	Israel		Israel	49098893	3	The Jerusalem Post				Samoa	-13.8333	-171.767
34076366	2019-03-05	Tuilaepa Sailele Malielegaoi	Executive,Executive Office,Government,Elite	Samoa	Make statement	010	0	Samoa		Samoa	49098893	5	The Jerusalem Post				Samoa	-13.8333	-171.767
34076367	2019-03-05	Tuilaepa Sailele Malielegaoi	Executive,Executive Office,Government,Elite	Samoa	Make a visit	042	1.9	Israel		Israel	49098893	5	The Jerusalem Post				Israel	31.779	35.2253
34076371	2019-03-05	Israel		Israel	Host a visit	043	2.8	Tuilaepa Sailele Malielegaoi	Executive,Executive Office,Government,Elite	Samoa	49098893	5	The Jerusalem Post				Israel	31.779	35.2253
34076326	2019-03-05	Yukiya Amano	International Government Organization,Global,Global Diplomatic IGOs,Global Energy IGOs		Make statement	010	0	International Atomic Energy Agency	International Government Organization,Global,Global Diplomatic IGOs,Global Energy IGOs		49098895	3	The Jerusalem Post	Tehran		Tehran Province	Iran	35.6944	51.4215
34076327	2019-03-05	Yukiya Amano	International Government Organization,Global,Global Diplomatic IGOs,Global Energy IGOs		Make statement	010	0	International Atomic Energy Agency	International Government Organization,Global,Global Diplomatic IGOs,Global Energy IGOs		49098895	6	The Jerusalem Post	Tehran		Tehran Province	Iran	35.6944	51.4215
34076377	2019-03-05	Jared Kushner	Government,Executive Office,Executive	United States	Make a visit	042	1.9	Qatar		Qatar	49098897	4	The Jerusalem Post				Qatar	25.2793	51.5224
34076378	2019-03-05	Jared Kushner	Government,Executive Office,Executive	United States	Make a visit	042	1.9	Saudi Arabia		Saudi Arabia	49098897	4	The Jerusalem Post	Riyadh		Mintaqat ar Riyad	Saudi Arabia	24.6877	46.7219
34076379	2019-03-05	Jared Kushner	Government,Executive Office,Executive	United States	Make a visit	042	1.9	United Arab Emirates		United Arab Emirates	49098897	4	The Jerusalem Post				United Arab Emirates	25.2582	55.3047
34076380	2019-03-05	Qatar		Qatar	Host a visit	043	2.8	Jared Kushner	Government,Executive Office,Executive	United States	49098897	4	The Jerusalem Post				Qatar	25.2793	51.5224
34076381	2019-03-05	Saudi Arabia		Saudi Arabia	Host a visit	043	2.8	Jared Kushner	Government,Executive Office,Executive	United States	49098897	4	The Jerusalem Post	Riyadh		Mintaqat ar Riyad	Saudi Arabia	24.6877	46.7219
34076382	2019-03-05	United Arab Emirates		United Arab Emirates	Host a visit	043	2.8	Jared Kushner	Government,Executive Office,Executive	United States	49098897	4	The Jerusalem Post				United Arab Emirates	25.2582	55.3047
34076329	2019-03-05	Benny Gantz	Military,Government	Israel	Accuse	112	-2	Benjamin Netanyahu	Parties,(National) Major Party,Foreign Ministry,Ideological,Center Right,Jews,Executive,International Ethnic,Government,Elite,Executive Office	Israel	49098899	1	The Jerusalem Post				Israel	31.779	35.2253
34075653	2019-03-08	Citizen (Georgia)	General Population / Civilian / Social,Social	Georgia	Accuse	112	-2	People Associated with the Opposition (Georgia)	Dissident,Protestors / Popular Opposition / Mobs	Georgia	49097360	5	Prime-News (Georgia)	Tbilisi		K'alak'i T'bilisi	Georgia	41.6941	44.8337
34075685	2019-03-08	United States		United States	Make an appeal or request	020	3	Pakistan		Pakistan	49097509	1	Hindustan Times	Pulwama		State of Jammu and Kashmir	India	33.8741	74.8996
34075686	2019-03-08	India		India	Make an appeal or request	020	3	Pakistan		Pakistan	49097509	1	Hindustan Times	Pulwama		State of Jammu and Kashmir	India	33.8741	74.8996
34075669	2019-03-08	Bharatiya Janata	Parties,(National) Major Party,Opposition Major Party (Out Of Government)	India	Praise or endorse	051	3.4	Hindu (India)	National Religious,Social,Hindu,International Religious	India	49097510	4	Hindustan Times	Thiruvananthapuram		State of Kerala	India	8.4855	76.9492
34075860	2019-03-08	Government (Colombia)	Government	Colombia	Appeal for easing of administrative sanctions	0251	-0.3	Constitutional Court (Colombia)	Government,Judicial	Colombia	49097834	1	Unknown				Colombia	4.60971	-74.0817
34075654	2019-03-09	World Health Organization	Global Diplomatic IGOs,Global Health IGOs,International Government Organization,Global		Make statement	010	0	Democratic Republic of Congo		Democratic Republic of Congo	49097380	3	Al Jazeera English	Butembo	North Kivu	Province du Nord-Kivu	Democratic Republic of Congo	0.14164	29.2912
34075630	2019-03-09	Citizen (Venezuela)	General Population / Civilian / Social,Social	Venezuela	Demonstrate or rally	141	-6.5	Unspecified Actor	Unspecified		49097382	1	Al Jazeera English	Caracas	Municipio Libertador	Distrito Capital	Venezuela	10.488	-66.8792
34075666	2019-03-09	Ilham Aliyev	(National) Major Party,Parties,Government,Center Right,Ideological,Elite,Executive Office,Nationalist,Secular,Executive	Azerbaijan	Consult	040	1	Nikol Pashinyan	Government,Executive Office,Elite,Executive	Armenia	49097427	1	Turan Information Agency (Azerbaijan)	Moscow		Moskva	Russian Federation	55.7522	37.6156
34075667	2019-03-09	Nikol Pashinyan	Government,Executive Office,Elite,Executive	Armenia	Consult	040	1	Ilham Aliyev	(National) Major Party,Parties,Government,Center Right,Ideological,Elite,Executive Office,Nationalist,Secular,Executive	Azerbaijan	49097427	1	Turan Information Agency (Azerbaijan)	Moscow		Moskva	Russian Federation	55.7522	37.6156
34075681	2019-03-09	Rahul Gandhi	Parties,Government Major Party (In Government),(National) Major Party,Government	India	Make an appeal or request	020	3	Narendra Modi	Ideological,Parties,(National) Major Party,Opposition Major Party (Out Of Government),Elite,Dissident,International Religious,Radicals / Extremists / Fundamentalists,Far Right,Hindu,Nationalist	India	49097437	1	Hindustan Times	Pulwama		State of Jammu and Kashmir	India	33.8741	74.8996
34075683	2019-03-09	India		India	Use conventional military force	190	-10	Central Reserve Police Force	Government,Police	India	49097437	2	Hindustan Times	Pulwama		State of Jammu and Kashmir	India	33.8741	74.8996
34075682	2019-03-09	India		India	Return, release person(s)	0841	7	Rahul Gandhi	Parties,Government Major Party (In Government),(National) Major Party,Government	India	49097437	6	Hindustan Times	Haveri		State of Karnataka	India	14.7935	75.4045
34075699	2019-03-09	Yogi Adityanath	Local,Provincial,Government	India	Make optimistic comment	013	0.4	Bharatiya Janata	Parties,(National) Major Party,Opposition Major Party (Out Of Government)	India	49097484	1	Hindustan Times	Amethi		State of Uttar Pradesh	India	28.0167	81.05
34075710	2019-03-09	Pakistan		Pakistan	Deny responsibility	016	-5	Jaish-e-Mohammad	International Terrorists,Dissident,International Dissident,Separatists	Pakistan	49097486	3	Hindustan Times	Pulwama		State of Jammu and Kashmir	India	33.8741	74.8996
34075670	2019-03-09	Police (India)	Government,Police	India	Arrest, detain, or charge with legal action	173	-5	Student (India)	Social,Education	India	49097502	1	Hindustan Times	Fatehabad		State of Punjab	India	31.3801	75.0991
34075671	2019-03-09	Police (India)	Government,Police	India	Arrest, detain, or charge with legal action	173	-5	Party Member (India)	Parties	India	49097502	5	Hindustan Times	Fatehabad		State of Punjab	India	31.3801	75.0991
34075903	2019-03-09	Business (United States)	Social,Business	United States	Cooperate economically	061	6.4	Algeria		Algeria	49097973	6	L'Expression	Houston	Harris County	Texas	United States	29.7633	-95.3633
34075908	2019-03-09	Women (Algeria)	General Population / Civilian / Social,Social	Algeria	Criticize or denounce	111	-2	Government (Algeria)	Government	Algeria	49097977	5	L'Expression			Annaba	Algeria	36.8333	7.58333
34075928	2019-03-09	Abdelaziz Bouteflika	Far Left,Executive,Ideological,Government,Executive Office,Parties,(National) Major Party,Elite	Algeria	Praise or endorse	051	3.4	National Liberation Army	Far Left,Ideological,Dissident,Insurgents	Colombia	49097978	6	L'Expression				Algeria	36.7525	3.04197
34075966	2019-03-09	Police (Algeria)	Police,Government	Algeria	Arrest, detain, or charge with legal action	173	-5	Citizen (Algeria)	General Population / Civilian / Social,Social	Algeria	49097979	1	L'Expression	Algiers		Wilaya d' Alger	Algeria	36.7525	3.04197
34075947	2019-03-09	Attacker (Iraq)	Criminals / Gangs,Dissident	Iraq	Use unconventional violence	180	-9	Military (Iraq)	Government,Military	Iraq	49097981	2	L'Expression	Baghdad		Muhafazat Baghdad	Iraq	33.3406	44.4009
34075920	2019-03-09	Citizen (Venezuela)	General Population / Civilian / Social,Social	Venezuela	Criticize or denounce	111	-2	United States		United States	49097990	1	L'Expression				United States	38.8951	-77.0364
34075972	2019-03-09	Taliban	International Religious,Fundamentalist,Sunni,Dissident,Ideological,Insurgents	Afghanistan	Engage in negotiation	046	7	United States		United States	49097992	1	L'Expression	Doha		Baladiyat ad Dawhah	Qatar	25.2793	51.5224
34075973	2019-03-09	United States		United States	Engage in negotiation	046	7	Taliban	International Religious,Fundamentalist,Sunni,Dissident,Ideological,Insurgents	Afghanistan	49097992	1	L'Expression	Doha		Baladiyat ad Dawhah	Qatar	25.2793	51.5224
34075990	2019-03-09	Sergey Viktorovich Lavrov	Government,Ideological,Foreign Ministry,Center Right,(National) Major Party,Executive,Parties,Cabinet	Russian Federation	Make statement	010	0	Russia		Russian Federation	49097993	3	L'Expression			Idlib	Syria	35.7667	36.6667
34075943	2019-03-09	United States		United States	Engage in negotiation	046	7	North Korea		North Korea	49097994	1	L'Expression	Hanoi		Thanh Pho Ha Noi	Vietnam	21.0245	105.841
34075944	2019-03-09	North Korea		North Korea	Engage in negotiation	046	7	United States		United States	49097994	1	L'Expression	Hanoi		Thanh Pho Ha Noi	Vietnam	21.0245	105.841
34075945	2019-03-09	United States		United States	Engage in negotiation	046	7	North Korea		North Korea	49097994	5	L'Expression	Hanoi		Thanh Pho Ha Noi	Vietnam	21.0245	105.841
34075946	2019-03-09	North Korea		North Korea	Engage in negotiation	046	7	United States		United States	49097994	5	L'Expression	Hanoi		Thanh Pho Ha Noi	Vietnam	21.0245	105.841
34075887	2019-03-09	Israel		Israel	fight with small arms and light weapons	193	-10	Citizen (Palestinian Territory, Occupied)	Social,General Population / Civilian / Social	Occupied Palestinian Territory	49097996	1	L'Expression			Gaza Strip	Occupied Palestinian Territory	31.4167	34.3333
34075888	2019-03-09	Palestinian Territory, Occupied		Occupied Palestinian Territory	fight with small arms and light weapons	193	-10	Israel		Israel	49097996	1	L'Expression			Gaza Strip	Occupied Palestinian Territory	31.4167	34.3333
34076658	2019-03-09	Citizen (Australia)	General Population / Civilian / Social,Social	Australia	Return, release person(s)	0841	7	Australia		Australia	49099452	2	Daily Telegraph	Tamworth	Tamworth Municipality	State of New South Wales	Australia	-31.0905	150.929
34076848	2019-03-09	Police (Ukraine)	Police,Government	Ukraine	Use conventional military force	190	-10	Citizen (Ukraine)	General Population / Civilian / Social,Social	Ukraine	49099972	1	Euronews	Kiev		Misto Kyyiv	Ukraine	50.4547	30.5238
34076849	2019-03-09	Citizen (Ukraine)	General Population / Civilian / Social,Social	Ukraine	Use unconventional violence	180	-9	Police (Ukraine)	Police,Government	Ukraine	49099972	1	Euronews	Kiev		Misto Kyyiv	Ukraine	50.4547	30.5238
34075609	2019-03-10	Government (India)	Government	India	Demand	100	-5	Business (India)	Social,Business	India	49097181	3	Indo-Asian News Service	New Delhi		National Capital Territory of Delhi	India	28.6358	77.2244
34075582	2019-03-10	Moon Jae-in	Executive Office,Government,Executive	South Korea	Make a visit	042	1.9	Brunei		Brunei	49097185	2	Yonhap English News				Brunei	4.94029	114.948
34075583	2019-03-10	Brunei		Brunei	Host a visit	043	2.8	Moon Jae-in	Executive Office,Government,Executive	South Korea	49097185	2	Yonhap English News				Brunei	4.94029	114.948
34075606	2019-03-10	Xinhua	Executive,Government,Information / Communication / Transparency Ministry	China	Make statement	010	0	China		China	49097188	2	Associated Press Newswires	Beijing		Beijing Shi	China	39.9075	116.397
34075607	2019-03-10	Tibet Autonomous Region		China	Make statement	010	0	China		China	49097188	3	Associated Press Newswires	Beijing		Beijing Shi	China	39.9075	116.397
34075589	2019-03-10	Andrés Manuel López Obrador	Protestors / Popular Opposition / Mobs,Dissident,Ideological,Far Left,(National) Major Party,Parties	Mexico	Make a visit	042	1.9	Mexico		Mexico	49097190	6	Agence France-Presse		Guanajuato	Estado de Guanajuato	Mexico	21.0048	-101.265
34075590	2019-03-10	Mexico		Mexico	Host a visit	043	2.8	Andrés Manuel López Obrador	Protestors / Popular Opposition / Mobs,Dissident,Ideological,Far Left,(National) Major Party,Parties	Mexico	49097190	6	Agence France-Presse		Guanajuato	Estado de Guanajuato	Mexico	21.0048	-101.265
34075592	2019-03-10	City Mayor (Philippines)	Municipal,Local,Government	Philippines	Make statement	010	0	Leni Robredo	Executive,Executive Office,Government	Philippines	49097194	3	PNA (Philippines News Agency)	Davao	Davao City	Davao	Philippines	7.07306	125.613
34075593	2019-03-10	Leni Robredo	Executive,Executive Office,Government	Philippines	Make an appeal or request	020	3	Member of the Judiciary (Philippines)	Judicial,Government	Philippines	49097194	6	PNA (Philippines News Agency)			Mindanao	Philippines	7.09544	124.387
34075612	2019-03-10	Secret Agent (Philippines)	Military Intelligence,Government,Military	Philippines	Arrest, detain, or charge with legal action	173	-5	Thief (Philippines)	Criminals / Gangs,Dissident	Philippines	49097195	2	PNA (Philippines News Agency)	Bacolod City	Province of Negros Occidental	Western Visayas	Philippines	10.6667	122.95
34075577	2019-03-10	Moon Jae-in	Executive Office,Government,Executive	South Korea	Make a visit	042	1.9	Brunei		Brunei	49097199	1	Yonhap English News				Brunei	4.94029	114.948
34075578	2019-03-10	Brunei		Brunei	Host a visit	043	2.8	Moon Jae-in	Executive Office,Government,Executive	South Korea	49097199	1	Yonhap English News				Brunei	4.94029	114.948
34075619	2019-03-10	Armed Band (Mexico)	Unidentified Forces	Mexico	Use unconventional violence	180	-9	Mexico		Mexico	49097200	2	Xinhua News Agency	Salamanca		Estado de Chihuahua	Mexico	27.25	-105.617
34075594	2019-03-10	Wang Shouwen	Government	China	Make optimistic comment	013	0.4	United States		United States	49097201	2	Trend News Agency (Azerbaijan)			Washington D.C.	United States	38.9171	-77.0003
34075596	2019-03-10	United States		United States	Demand	100	-5	China		China	49097201	3	Trend News Agency (Azerbaijan)	Beijing		Beijing Shi	China	39.9075	116.397
34075595	2019-03-10	China		China	Consult	040	1	Legislature (China)	Legislative / Parliamentary,Government	China	49097201	5	Trend News Agency (Azerbaijan)	Beijing		Beijing Shi	China	39.9075	116.397
34075597	2019-03-10	Legislature (China)	Legislative / Parliamentary,Government	China	Consult	040	1	China		China	49097201	5	Trend News Agency (Azerbaijan)	Beijing		Beijing Shi	China	39.9075	116.397
34075584	2019-03-10	Military (Afghanistan)	Government,Military	Afghanistan	Use conventional military force	190	-10	Taliban	Dissident,Fundamentalist,Ideological,International Religious,Insurgents,Sunni	Afghanistan	49097202	3	Trend News Agency (Azerbaijan)	Uruzgan		Uruzgan	Afghanistan	32.9277	66.6325
34075603	2019-03-10	Citizen (Singapore)	Social,General Population / Civilian / Social	Singapore	Express intent to provide material aid	033	5.2	Archdiocese (Singapore)	Christian,National Religious,Social,International Religious	Singapore	49097203	4	Straits Times				Singapore	1.28967	103.85
34075585	2019-03-10	Malaysia		Malaysia	Expel or deport individuals	174	-5	Citizen (Egypt)	Social,General Population / Civilian / Social	Egypt	49097204	1	Reuters News	Kuala Lumpur		Kuala Lumpur	Malaysia	3.1412	101.687
34075586	2019-03-10	Malaysia		Malaysia	Expel or deport individuals	174	-5	Citizen (Tunisia)	General Population / Civilian / Social,Social	Tunisia	49097204	1	Reuters News	Kuala Lumpur		Kuala Lumpur	Malaysia	3.1412	101.687
34075605	2019-03-10	Police (China)	Government,Police	China	Investigate	090	-2	Men (China)	General Population / Civilian / Social,Social	China	49097206	1	Kyodo News	Chiba		Gansu Sheng	China	33.6466	104.782
34075613	2019-03-10	Company - Owner or Operator (Thailand)	Business,Social	Thailand	Express intent to provide economic aid	0331	5.2	Men (Thailand)	General Population / Civilian / Social,Social	Thailand	49097215	2	Bangkok Post	Chumphon		Changwat Chumphon	Thailand	10.4957	99.1797
34075618	2019-03-10	Andrés Manuel López Obrador	Protestors / Popular Opposition / Mobs,Dissident,Ideological,Far Left,(National) Major Party,Parties	Mexico	Engage in diplomatic cooperation	050	3.5	Donald Trump	Executive Office,Executive,Government	United States	49097217	3	Associated Press Newswires	Mexico City		Distrito Federal	Mexico	19.4285	-99.1277
34075579	2019-03-10	Leila de Lima	Upper House,Legislative / Parliamentary,Government	Philippines	Make an appeal or request	020	3	Philippines		Philippines	49097224	2	Philippine Daily Inquirer				Philippines	14.6042	120.982
34075604	2019-03-10	Media Personnel (Philippines)	Social,Media	Philippines	Make statement	010	0	Philippines		Philippines	49097225	4	Philippine Daily Inquirer	Makati City	Makati City	National Capital Region	Philippines	14.5503	121.033
34075588	2019-03-10	Rodrigo Duterte	Executive,Executive Office,Government	Philippines	Threaten	130	-4.4	Businessperson (Philippines)	Business,Social	Philippines	49097228	2	Philippine Daily Inquirer	Victorias	Province of Negros Occidental	Western Visayas	Philippines	10.9015	123.071
34075587	2019-03-10	Rodrigo Duterte	Executive,Executive Office,Government	Philippines	Make statement	010	0	Businessperson (Philippines)	Business,Social	Philippines	49097228	4	Philippine Daily Inquirer		Province of Negros Occidental	Western Visayas	Philippines	10.4167	123
34075599	2019-03-10	Police (Philippines)	Police,Government	Philippines	Arrest, detain, or charge with legal action	173	-5	Citizen (Philippines)	General Population / Civilian / Social,Social	Philippines	49097229	1	Philippine Daily Inquirer	Lucena City	Province of Quezon	Calabarzon	Philippines	13.9333	121.617
34075602	2019-03-10	Police (Philippines)	Police,Government	Philippines	Use conventional military force	190	-10	Drug Dealer (Philippines)	Criminals / Gangs,Dissident	Philippines	49097229	1	Philippine Daily Inquirer	Lucena City	Province of Quezon	Calabarzon	Philippines	13.9333	121.617
34075598	2019-03-10	Police (Philippines)	Police,Government	Philippines	Make statement	010	0	Criminal (Philippines)	Criminals / Gangs,Dissident	Philippines	49097229	4	Philippine Daily Inquirer	Lucena City	Province of Quezon	Calabarzon	Philippines	13.9333	121.617
34075600	2019-03-10	Philippines		Philippines	Arrest, detain, or charge with legal action	173	-5	Citizen (Philippines)	General Population / Civilian / Social,Social	Philippines	49097229	6	Philippine Daily Inquirer	Candelaria	Province of Ilocos Sur	Ilocos	Philippines	17.1742	120.525
34075601	2019-03-10	Philippines		Philippines	Arrest, detain, or charge with legal action	173	-5	Criminal (Philippines)	Criminals / Gangs,Dissident	Philippines	49097229	6	Philippine Daily Inquirer	Candelaria	Province of Ilocos Sur	Ilocos	Philippines	17.1742	120.525
34075616	2019-03-10	Liberals (Australia)	Parties,Center Left,Ideological	Australia	Reject	120	-4	Government (Australia)	Government	Australia	49097239	5	Australian Associated Press	Sydney	City of Sydney	State of New South Wales	Australia	-33.8679	151.207
34075617	2019-03-10	Indigenous People (Australia)	Social,General Population / Civilian / Social	Australia	Reject	120	-4	Government (Australia)	Government	Australia	49097239	5	Australian Associated Press	Sydney	City of Sydney	State of New South Wales	Australia	-33.8679	151.207
34075624	2019-03-10	Space Agency (Iran)	Executive,Science / Tech / Knowledge / Innovation Ministry,Government	Iran	Make statement	010	0	Iran		Iran	49097253	2	Organisation of Asia-Pacific News Agencies	Tehran		Tehran Province	Iran	35.6944	51.4215
34075643	2019-03-10	Armed Opposition (India)	Rebel,Dissident	India	Appeal for de-escalation of military engagement	0256	-0.3	Police (India)	Police,Government	India	49097258	3	Hindustan Times	Kishtwar		State of Jammu and Kashmir	India	33.3135	75.7673
34075623	2019-03-10	Police (Israel)	Police,Government	Israel	fight with small arms and light weapons	193	-10	Citizen (Palestinian Territory, Occupied)	Social,General Population / Civilian / Social	Occupied Palestinian Territory	49097262	1	Agence France-Presse			West Bank	Occupied Palestinian Territory	31.6667	35.25
34075631	2019-03-10	Citizen (Yemen)	General Population / Civilian / Social,Social	Yemen	Criticize or denounce	111	-2	Yemeni Armed Forces	Government,Military	Yemen	49097263	5	Yemen News Agency (SABA)	Aden	Craiter	Muhafazat `Adan	Yemen	12.7794	45.0367
34075633	2019-03-10	Foreign Affairs (Russia)	Government,Executive,Foreign Ministry	Russian Federation	Make statement	010	0	United States		United States	49097264	2	Yemen News Agency (SABA)	Saba		Respublika Sakha (Yakutiya)	Russian Federation	66.6167	149.417
34075634	2019-03-10	Russia		Russian Federation	Make optimistic comment	013	0.4	Foreign Affairs (United States)	Executive,Foreign Ministry,Government	United States	49097264	3	Yemen News Agency (SABA)	Moscow		Moskva	Russian Federation	55.7522	37.6156
34075632	2019-03-10	Head of Government (Yemen)	Executive,Government,Executive Office	Yemen	Make statement	010	0	Labor Union (Yemen)	Social,Labor	Yemen	49097265	6	Yemen News Agency (SABA)	Sana'a		Sanaa	Yemen	15.3547	44.2067
34075626	2019-03-10	Malaysia		Malaysia	Reduce relations	160	-4	Islamic Militant (Malaysia)	International Religious,Muslim,Dissident,Rebel	Malaysia	49097267	1	Straits Times	Kuala Lumpur		Kuala Lumpur	Malaysia	3.1412	101.687
34075621	2019-03-10	Air Force (India)	Military,Government,Air Force	India	Employ aerial weapons	195	-10	Pakistan		Pakistan	49097269	1	Indo-Asian News Service	Abu Dhabi		Abu Zaby	United Arab Emirates	24.4667	54.3667
34075620	2019-03-10	United Arab Emirates		United Arab Emirates	Reject	120	-4	Pakistan		Pakistan	49097269	4	Indo-Asian News Service	Balakot		Khyber Pakhtunkhwa Province	Pakistan	34.554	73.3492
34075656	2019-03-10	Citizen (Brazil)	General Population / Civilian / Social,Social	Brazil	Accuse	112	-2	Religion (Brazil)	National Religious,Social	Brazil	49097272	5	O Globo	Bom Jesus	Delmiro Gouveia	Estado de Alagoas	Brazil	-9.43333	-37.9167
34075627	2019-03-10	Police (Venezuela)	Government,Police	Venezuela	Impose administrative sanctions	172	-5	Venezuela		Venezuela	49097324	2	The Washington Post	Caracas	Municipio Libertador	Distrito Capital	Venezuela	10.488	-66.8792
34075622	2019-03-10	Citizen (Venezuela)	General Population / Civilian / Social,Social	Venezuela	Make pessimistic comment	012	-0.4	Venezuela		Venezuela	49097337	4	The Washington Post	Caracas	Municipio Libertador	Distrito Capital	Venezuela	10.488	-66.8792
34075640	2019-03-10	Sam Brownback	Local,Provincial,Ideological,Center Right,Government,(National) Major Party,Parties	United States	Make a visit	042	1.9	Taiwan		Taiwan	49097352	6	Taipei Times	Taipei		Taipei	Taiwan	25.0478	121.532
34075641	2019-03-10	Taiwan		Taiwan	Host a visit	043	2.8	Sam Brownback	Local,Provincial,Ideological,Center Right,Government,(National) Major Party,Parties	United States	49097352	6	Taipei Times	Taipei		Taipei	Taiwan	25.0478	121.532
34075642	2019-03-10	United States		United States	Praise or endorse	051	3.4	Taiwan		Taiwan	49097353	1	Taipei Times				United States	38.8951	-77.0364
34075635	2019-03-10	Hassan Rouhani	Defense / Security Ministry,Far Right,Government,(National) Major Party,Parties,Executive,Executive Office,Ideological,Elite,Government Religious	Iran	Express intent to meet or negotiate	036	4	Iraq		Iraq	49097369	1	Organisation of Asia-Pacific News Agencies	Baghdad		Muhafazat Baghdad	Iraq	33.3406	44.4009
34075636	2019-03-10	Hassan Rouhani	Defense / Security Ministry,Far Right,Government,(National) Major Party,Parties,Executive,Executive Office,Ideological,Elite,Government Religious	Iran	Make a visit	042	1.9	Iraq		Iraq	49097369	2	Organisation of Asia-Pacific News Agencies	Baghdad		Muhafazat Baghdad	Iraq	33.3406	44.4009
34075638	2019-03-10	Iraq		Iraq	Host a visit	043	2.8	Hassan Rouhani	Defense / Security Ministry,Far Right,Government,(National) Major Party,Parties,Executive,Executive Office,Ideological,Elite,Government Religious	Iran	49097369	2	Organisation of Asia-Pacific News Agencies	Baghdad		Muhafazat Baghdad	Iraq	33.3406	44.4009
34075637	2019-03-10	Hassan Rouhani	Defense / Security Ministry,Far Right,Government,(National) Major Party,Parties,Executive,Executive Office,Ideological,Elite,Government Religious	Iran	Make a visit	042	1.9	Iraq		Iraq	49097369	3	Organisation of Asia-Pacific News Agencies	Baghdad		Muhafazat Baghdad	Iraq	33.3406	44.4009
34075639	2019-03-10	Iraq		Iraq	Host a visit	043	2.8	Hassan Rouhani	Defense / Security Ministry,Far Right,Government,(National) Major Party,Parties,Executive,Executive Office,Ideological,Elite,Government Religious	Iran	49097369	3	Organisation of Asia-Pacific News Agencies	Baghdad		Muhafazat Baghdad	Iraq	33.3406	44.4009
34075645	2019-03-10	Protester (Serbia)	Protestors / Popular Opposition / Mobs,Dissident	Serbia	Demonstrate or rally	141	-6.5	Unspecified Actor	Unspecified		49097376	3	Deutsche Welle	Belgrade		Central Serbia	Serbia	44.804	20.4651
34075647	2019-03-10	Liberals (Australia)	Ideological,Parties,Center Left	Australia	Reject	120	-4	Government (Australia)	Government	Australia	49097384	5	AAP Bulletins	Revesby	Bankstown	State of New South Wales	Australia	-33.95	151.017
34075648	2019-03-10	Indigenous People (Australia)	General Population / Civilian / Social,Social	Australia	Reject	120	-4	Government (Australia)	Government	Australia	49097384	5	AAP Bulletins	Revesby	Bankstown	State of New South Wales	Australia	-33.95	151.017
34075695	2019-03-10	Nicolás Maduro	Ideological,Far Left,Parties,(National) Major Party,Government,Elite,Executive,Cabinet,Executive Office	Venezuela	Make statement	010	0	Venezuela		Venezuela	49097421	1	Xinhua News Agency	Caracas	Municipio Libertador	Distrito Capital	Venezuela	10.488	-66.8792
34075696	2019-03-10	Nicolás Maduro	Ideological,Far Left,Parties,(National) Major Party,Government,Elite,Executive,Cabinet,Executive Office	Venezuela	Accuse	112	-2	People Associated with the Opposition (Venezuela)	Dissident,Protestors / Popular Opposition / Mobs	Venezuela	49097421	4	Xinhua News Agency	Caracas	Municipio Libertador	Distrito Capital	Venezuela	10.488	-66.8792
34075698	2019-03-10	Arthur Peter Mutharika	Science / Tech / Knowledge / Innovation Ministry,Executive,Cabinet,Executive Office,Government,Education Ministry	Malawi	Demand	100	-5	Military (Malawi)	Government,Military	Malawi	49097423	6	Reuters News	Neno	Neno District	Southern Region	Malawi	-15.3981	34.6534
34075663	2019-03-10	Korean Central News Agency	Executive,Information / Communication / Transparency Ministry,State Media,Government	North Korea	Make statement	010	0	Party Member (North Korea)	Parties	North Korea	49097425	6	Indo-Asian News Service	Pyongyang		P'yongyang-si	North Korea	39.0339	125.754
34075658	2019-03-10	Wang Shouwen	Government	China	Make statement	010	0	China		China	49097431	2	PNA (Philippines News Agency)	Manila	City of Manila	National Capital Region	Philippines	14.6042	120.982
34075691	2019-03-10	Citizen (Algeria)	General Population / Civilian / Social,Social	Algeria	Demonstrate or rally	141	-6.5	Unspecified Actor	Unspecified		49097434	2	Reuters News	Algiers		Wilaya d' Alger	Algeria	36.7525	3.04197
34075690	2019-03-10	Abdelaziz Bouteflika	Government,Ideological,Far Left,Executive Office,Elite,Parties,(National) Major Party,Executive	Algeria	Express intent to meet or negotiate	036	4	Switzerland		Switzerland	49097434	3	Reuters News	Algiers		Wilaya d' Alger	Algeria	36.7525	3.04197
34075657	2019-03-10	Defense / Security Ministry (India)	Defense / Security Ministry,Government,Executive	India	Make an appeal or request	020	3	Election Commission (India)	Government,Executive,Elections Ministry	India	49097435	3	Hindustan Times	New Delhi		National Capital Territory of Delhi	India	28.6358	77.2244
34075711	2019-03-10	Head of Government (Guinea-Bissau)	Executive,Government,Executive Office	Guinea-Bissau	Make an appeal or request	020	3	Unidentified State Actor			49097440	2	Al Jazeera English				Guinea-Bissau	11.8539	-15.591
34075672	2019-03-10	United States		United States	Express intent to settle dispute	037	5	China		China	49097442	2	Agence France-Presse	Beijing		Beijing Shi	China	39.9075	116.397
34075673	2019-03-10	China		China	Express intent to settle dispute	037	5	United States		United States	49097442	2	Agence France-Presse	Beijing		Beijing Shi	China	39.9075	116.397
34075674	2019-03-10	United States		United States	Consult	040	1	China		China	49097442	2	Agence France-Presse	Beijing		Beijing Shi	China	39.9075	116.397
34075675	2019-03-10	China		China	Consult	040	1	United States		United States	49097442	2	Agence France-Presse	Beijing		Beijing Shi	China	39.9075	116.397
34075676	2019-03-10	Donald Trump	Government,Executive Office,Executive	United States	Accuse	112	-2	China		China	49097442	3	Agence France-Presse	Beijing		Beijing Shi	China	39.9075	116.397
34075700	2019-03-10	Opposition Supporter (Venezuela)	Dissident,Protestors / Popular Opposition / Mobs	Venezuela	Demonstrate or rally	141	-6.5	Unspecified Actor	Unspecified		49097456	1	The New York Times	Caracas	Municipio Libertador	Distrito Capital	Venezuela	10.488	-66.8792
34075701	2019-03-10	Protester (Venezuela)	Dissident,Protestors / Popular Opposition / Mobs	Venezuela	Protest violently, riot	145	-7.5	Police (Venezuela)	Government,Police	Venezuela	49097456	2	The New York Times	Caracas	Municipio Libertador	Distrito Capital	Venezuela	10.488	-66.8792
34075702	2019-03-10	Police (Venezuela)	Government,Police	Venezuela	Use tactics of violent repression	175	-9	Protester (Venezuela)	Dissident,Protestors / Popular Opposition / Mobs	Venezuela	49097456	2	The New York Times	Caracas	Municipio Libertador	Distrito Capital	Venezuela	10.488	-66.8792
34075723	2019-03-10	Foreign Affairs (Iran)	Foreign Ministry,Executive,Government	Iran	Reject	120	-4	United Kingdom		United Kingdom	49097457	1	The New York Times	Tehran		Tehran Province	Iran	35.6944	51.4215
34075722	2019-03-10	United Kingdom		United Kingdom	Accuse	112	-2	Iran		Iran	49097457	2	The New York Times	Tehran		Tehran Province	Iran	35.6944	51.4215
34075721	2019-03-10	Foreign Affairs (Iran)	Foreign Ministry,Executive,Government	Iran	Make statement	010	0	Iran		Iran	49097457	4	The New York Times			Britain	United Kingdom	53.5938	-1.86823
34075668	2019-03-10	Government (China)	Government	China	Demand	100	-5	China		China	49097464	4	The New York Times	Beijing		Beijing Shi	China	39.9075	116.397
34075684	2019-03-10	United States		United States	Return, release person(s)	0841	7	Ruth Kelly	Executive,Ideological,Center Left,Government,Elite,(National) Major Party,Parties	United Kingdom	49097468	1	The New York Times	Chicago	Cook County	Illinois	United States	41.85	-87.65
34075714	2019-03-10	Ministry (Malaysia)	Government	Malaysia	Criticize or denounce	111	-2	Citizen (Malaysia)	Social,General Population / Civilian / Social	Malaysia	49097476	1	Reuters News	Kuala Lumpur		Kuala Lumpur	Malaysia	3.1412	101.687
34075713	2019-03-10	Ministry (Malaysia)	Government	Malaysia	Make statement	010	0	Government (Malaysia)	Government	Malaysia	49097476	4	Reuters News	Kuala Lumpur		Kuala Lumpur	Malaysia	3.1412	101.687
34075719	2019-03-10	Insurgent (Myanmar)	Rebel,Dissident	Myanmar	Use unconventional violence	180	-9	Police (Myanmar)	Government,Police	Myanmar	49097477	1	Reuters News	Yangon		Yangon Region	Myanmar	16.8053	96.1561
34075720	2019-03-10	Arakan		Myanmar	Use conventional military force	190	-10	Police (Myanmar)	Government,Police	Myanmar	49097477	3	Reuters News			Rakhine State	Myanmar	19	94.25
34075693	2019-03-10	Citizen (Tunisia)	General Population / Civilian / Social,Social	Tunisia	Accede to demands for change in leadership	0831	5	Healthcare Facility (Tunisia)	Social,Medical / Health	Tunisia	49097492	1	Trend News Agency (Azerbaijan)				Tunisia	36.819	10.1658
34075687	2019-03-10	Military (Mexico)	Military,Government	Mexico	fight with small arms and light weapons	193	-10	Criminal (Mexico)	Dissident,Criminals / Gangs	Mexico	49097493	1	Trend News Agency (Azerbaijan)			Estado de Tamaulipas	Mexico	24	-98.75
34075697	2019-03-10	Finance / Economy / Commerce / Trade Ministry (Qatar)	Government,Finance / Economy / Commerce / Trade Ministry,Executive	Qatar	Make statement	010	0	Qatar		Qatar	49097496	1	Reuters News	Doha		Baladiyat ad Dawhah	Qatar	25.2793	51.5224
34075694	2019-03-10	Police (India)	Government,Police	India	Arrest, detain, or charge with legal action	173	-5	Citizen (India)	General Population / Civilian / Social,Social	India	49097497	6	Hindustan Times	Chakia		State of Bihar	India	26.416	85.0467
34075708	2019-03-10	Police (Nepal)	Police,Government	Nepal	Arrest, detain, or charge with legal action	173	-5	Indian Administered Kashmir		India	49097500	1	Hindustan Times	Jammu		State of Jammu and Kashmir	India	32.7357	74.8691
34075679	2019-03-10	Inspector General (Malaysia)	Police,Government	Malaysia	Make statement	010	0	Police (Malaysia)	Police,Government	Malaysia	49097511	2	Channel NewsAsia	Kuala Lumpur		Kuala Lumpur	Malaysia	3.1412	101.687
34075680	2019-03-10	Malaysia		Malaysia	Arrest, detain, or charge with legal action	173	-5	Criminal (Malaysia)	Dissident,Criminals / Gangs	Malaysia	49097511	3	Channel NewsAsia			Sarawak	Malaysia	2.5	113.5
34075707	2019-03-10	India		India	Accuse	112	-2	Pakistan		Pakistan	49097512	5	Channel NewsAsia	Kashmir		Punjab	Pakistan	31.3422	74.3653
34075724	2019-03-10	Israeli Defense Forces	Military,Government	Israel	Use conventional military force	190	-10	Hamas	Muslim,International Religious,Dissident,Parties,(National) Major Party,Nongovernmental Organization (International)	Occupied Palestinian Territory	49097513	6	Agence France-Presse	Gaza		Gaza Strip	Occupied Palestinian Territory	31.5	34.4667
34075725	2019-03-10	Israeli Defense Forces	Military,Government	Israel	Use conventional military force	190	-10	Palestinian Territory, Occupied		Occupied Palestinian Territory	49097513	6	Agence France-Presse	Gaza		Gaza Strip	Occupied Palestinian Territory	31.5	34.4667
34075762	2019-03-10	Palestinian Territory, Occupied		Occupied Palestinian Territory	fight with artillery and tanks	194	-10	Israel		Israel	49097542	4	Xinhua News Agency	Gaza		Gaza Strip	Occupied Palestinian Territory	31.5	34.4667
34075763	2019-03-10	Israel		Israel	Employ aerial weapons	195	-10	Palestinian Territory, Occupied		Occupied Palestinian Territory	49097542	4	Xinhua News Agency	Gaza		Gaza Strip	Occupied Palestinian Territory	31.5	34.4667
34075757	2019-03-10	Citizen (Algeria)	Social,General Population / Civilian / Social	Algeria	Demonstrate or rally	141	-6.5	Unspecified Actor	Unspecified		49097544	3	Reuters News	Algiers		Wilaya d' Alger	Algeria	36.7525	3.04197
34075756	2019-03-10	Abdelaziz Bouteflika	Elite,Parties,Executive,(National) Major Party,Ideological,Government,Far Left,Executive Office	Algeria	Make a visit	042	1.9	Switzerland		Switzerland	49097544	4	Reuters News	Geneve		Canton de Geneve	Switzerland	46.2022	6.14569
34075758	2019-03-10	Switzerland		Switzerland	Host a visit	043	2.8	Abdelaziz Bouteflika	Elite,Parties,Executive,(National) Major Party,Ideological,Government,Far Left,Executive Office	Algeria	49097544	4	Reuters News	Geneve		Canton de Geneve	Switzerland	46.2022	6.14569
34075753	2019-03-10	Military Personnel (Saudi Arabia)	Military,Government	Saudi Arabia	Make statement	010	0	Saudi Arabian Defence Forces	Military,Government	Saudi Arabia	49097549	2	Yemen News Agency (SABA)	Najran		Mintaqat Najran	Saudi Arabia	17.4924	44.1277
34075764	2019-03-10	Rebel Group (Myanmar)	Dissident,Rebel	Myanmar	Use unconventional violence	180	-9	Citizen (Myanmar)	General Population / Civilian / Social,Social	Myanmar	49097553	2	EFE News Service	Sittwe		Rakhine State	Myanmar	20.1462	92.8984
34075745	2019-03-10	Police (Malaysia)	Police,Government	Malaysia	Arrest, detain, or charge with legal action	173	-5	Citizen (Malaysia)	Social,General Population / Civilian / Social	Malaysia	49097555	1	Vietnam News Agency Bulletin				Malaysia	3.14309	101.687
34075744	2019-03-10	Police (Malaysia)	Police,Government	Malaysia	Make an appeal or request	020	3	Citizen (Malaysia)	Social,General Population / Civilian / Social	Malaysia	49097555	5	Vietnam News Agency Bulletin				Malaysia	3.14309	101.687
34075746	2019-03-10	Treasury/Finance Ministry (Egypt)	Finance / Economy / Commerce / Trade Ministry,Executive,Government	Egypt	Make statement	010	0	Ministry (Egypt)	Government	Egypt	49097559	5	Mist News				Egypt	30.0626	31.2497
34075739	2019-03-10	Armed Rebel (Myanmar)	Dissident,Rebel	Myanmar	Use unconventional violence	180	-9	Police (Myanmar)	Police,Government	Myanmar	49097566	1	Kyodo News	Yangon		Yangon Region	Myanmar	16.8053	96.1561
34075737	2019-03-10	Military (Myanmar)	Military,Government	Myanmar	Make statement	010	0	Arakan		Myanmar	49097566	2	Kyodo News			Rakhine State	Myanmar	19	94.25
34075738	2019-03-10	Armed Rebel (Myanmar)	Dissident,Rebel	Myanmar	Demand de-escalation of military engagement	1056	-5	Police (Myanmar)	Police,Government	Myanmar	49097566	4	Kyodo News			Rakhine State	Myanmar	19	94.25
34075754	2019-03-10	Moon Jae-in	Executive Office,Government,Executive	South Korea	Make a visit	042	1.9	Southeast Asia			49097569	1	The Korea Herald				South Korea	37.5683	126.978
34075755	2019-03-10	Southeast Asia			Host a visit	043	2.8	Moon Jae-in	Executive Office,Government,Executive	South Korea	49097569	1	The Korea Herald				South Korea	37.5683	126.978
34075761	2019-03-10	India		India	Praise or endorse	051	3.4	Election Commission of India	Executive,Elections Ministry,Government	India	49097570	1	Indo-Asian News Service	Chennai		State of Tamil Nadu	India	13.0878	80.2785
34075749	2019-03-10	Hassan Rouhani	Executive Office,Government,Government Religious,Elite,Ideological,Defense / Security Ministry,Parties,Executive,(National) Major Party,Far Right	Iran	Make a visit	042	1.9	Iraq		Iraq	49097576	1	Associated Press Newswires	Baghdad		Muhafazat Baghdad	Iraq	33.3406	44.4009
34075750	2019-03-10	Iraq		Iraq	Host a visit	043	2.8	Hassan Rouhani	Executive Office,Government,Government Religious,Elite,Ideological,Defense / Security Ministry,Parties,Executive,(National) Major Party,Far Right	Iran	49097576	1	Associated Press Newswires	Baghdad		Muhafazat Baghdad	Iraq	33.3406	44.4009
34075748	2019-03-10	Mohammad Javad Zarif	Government,Education,Social,Foreign Ministry,Executive	Iran	Make statement	010	0	Hassan Rouhani	Executive Office,Government,Government Religious,Elite,Ideological,Defense / Security Ministry,Parties,Executive,(National) Major Party,Far Right	Iran	49097576	5	Associated Press Newswires	Baghdad		Muhafazat Baghdad	Iraq	33.3406	44.4009
34075760	2019-03-10	India		India	Employ aerial weapons	195	-10	Pakistan		Pakistan	49097579	4	Al Jazeera English	Kashmir		Punjab	Pakistan	31.3422	74.3653
34075740	2019-03-10	Military Personnel - Special (Afghanistan)	Military,Government	Afghanistan	Use conventional military force	190	-10	Taliban	Dissident,Insurgents,Ideological,International Religious,Sunni,Fundamentalist	Afghanistan	49097580	1	Al Jazeera English	Sayyidabad		Helmand	Afghanistan	32.1491	64.4336
34075741	2019-03-10	Military Personnel - Special (Afghanistan)	Military,Government	Afghanistan	Use conventional military force	190	-10	Taliban	Dissident,Insurgents,Ideological,International Religious,Sunni,Fundamentalist	Afghanistan	49097580	3	Al Jazeera English	Sayyidabad		Helmand	Afghanistan	32.1491	64.4336
34075759	2019-03-10	Police (Malaysia)	Police,Government	Malaysia	Arrest, detain, or charge with legal action	173	-5	Criminal (Malaysia)	Dissident,Criminals / Gangs	Malaysia	49097588	1	Vietnam News Agency Bulletin				Malaysia	3.14309	101.687
34075751	2019-03-10	Insurgent (Myanmar)	Dissident,Rebel	Myanmar	Use unconventional violence	180	-9	Police (Myanmar)	Police,Government	Myanmar	49097601	1	Reuters News	Yangon		Yangon Region	Myanmar	16.8053	96.1561
34075752	2019-03-10	Arakan		Myanmar	Use conventional military force	190	-10	Police (Myanmar)	Police,Government	Myanmar	49097601	3	Reuters News			Rakhine State	Myanmar	19	94.25
34075734	2019-03-10	Citizen (Germany)	Social,General Population / Civilian / Social	Germany	Express intent to meet or negotiate	036	4	Turkey		Turkey	49097605	2	Associated Press Newswires	Berlin		Land Berlin	Germany	52.5244	13.4105
34075733	2019-03-10	Foreign Affairs (Germany)	Executive,Foreign Ministry,Government	Germany	Make statement	010	0	Other Authorities / Officials (Turkey)	Government	Turkey	49097605	3	Associated Press Newswires	Berlin		Land Berlin	Germany	52.5244	13.4105
34075801	2019-03-10	Police (Israel)	Police,Government	Israel	fight with small arms and light weapons	193	-10	Children (Palestinian Territory, Occupied)	Social,General Population / Civilian / Social	Occupied Palestinian Territory	49097631	1	Xinhua News Agency	Jericho		West Bank	Occupied Palestinian Territory	31.8667	35.45
34075799	2019-03-10	Health Ministry (Palestinian Territory, Occupied)	Government,Health Ministry,Executive	Occupied Palestinian Territory	Make statement	010	0	Palestinian Territory, Occupied		Occupied Palestinian Territory	49097631	2	Xinhua News Agency	Jericho		West Bank	Occupied Palestinian Territory	31.8667	35.45
34075800	2019-03-10	Military (Palestinian Territory, Occupied)	Government,Military	Occupied Palestinian Territory	Arrest, detain, or charge with legal action	173	-5	Citizen (Palestinian Territory, Occupied)	Social,General Population / Civilian / Social	Occupied Palestinian Territory	49097631	6	Xinhua News Agency			West Bank	Occupied Palestinian Territory	31.6667	35.25
34075772	2019-03-10	Ministry (Pakistan)	Government	Pakistan	Make statement	010	0	Iran		Iran	49097633	1	Organisation of Asia-Pacific News Agencies	Tehran		Tehran Province	Iran	35.6944	51.4215
34075773	2019-03-10	Ministry (Pakistan)	Government	Pakistan	Make statement	010	0	Iran		Iran	49097633	3	Organisation of Asia-Pacific News Agencies	Tehran		Tehran Province	Iran	35.6944	51.4215
34075794	2019-03-10	Algeria		Algeria	Express intent to meet or negotiate	036	4	Switzerland		Switzerland	49097636	1	Reuters News	Algiers		Wilaya d' Alger	Algeria	36.7525	3.04197
34075790	2019-03-10	Head of Government (India)	Government,Executive Office,Executive	India	Make statement	010	0	Party President (India)	Parties	India	49097638	3	Indo-Asian News Service	Hyderabad	Hyderabad	State of Andhra Pradesh	India	17.3841	78.4564
34075791	2019-03-10	Head of Government (India)	Government,Executive Office,Executive	India	Make statement	010	0	Employee (India)	Labor,Social	India	49097638	3	Indo-Asian News Service	Hyderabad	Hyderabad	State of Andhra Pradesh	India	17.3841	78.4564
34075792	2019-03-10	Party President (India)	Parties	India	Consult	040	1	Employee (India)	Labor,Social	India	49097638	3	Indo-Asian News Service	Hyderabad	Hyderabad	State of Andhra Pradesh	India	17.3841	78.4564
34075793	2019-03-10	Employee (India)	Labor,Social	India	Consult	040	1	Party President (India)	Parties	India	49097638	3	Indo-Asian News Service	Hyderabad	Hyderabad	State of Andhra Pradesh	India	17.3841	78.4564
34075787	2019-03-10	India		India	Praise or endorse	051	3.4	Military Personnel - Special (India)	Government,Military	India	49097639	1	Indo-Asian News Service	Ghaziabad		State of Uttar Pradesh	India	28.6625	77.4378
34075795	2019-03-10	South African Reserve Bank	Social,Consulting / Financial Services Business,Business	South Africa	Accuse	112	-2	Cyril Ramaphosa	(National) Major Party,Parties,Management / Budget / Planning / Organization Ministry,Far Left,Executive Office,Executive,Consulting / Financial Services Business,Elite,Social,Ideological,Government Major Party (In Government),Government,Business	South Africa	49097644	5	Xinhua News Agency	Davos	Bezirk Praettigau-Davos	Kanton Graubunden	Switzerland	46.8043	9.83723
34075779	2019-03-10	Malaysia		Malaysia	Reduce relations	160	-4	Islamic Militant (Malaysia)	Rebel,Muslim,Dissident,International Religious	Malaysia	49097645	1	Straits Times	Kuala Lumpur		Kuala Lumpur	Malaysia	3.1412	101.687
34075788	2019-03-10	China		China	Make statement	010	0	United States		United States	49097649	1	Indo-Asian News Service	Beijing		Beijing Shi	China	39.9075	116.397
34075789	2019-03-10	Yi Gang	Government,Executive,Finance / Economy / Commerce / Trade Ministry	China	Make statement	010	0	China		China	49097649	3	Indo-Asian News Service	Beijing		Beijing Shi	China	39.9075	116.397
34075783	2019-03-10	Media Personnel (Thailand)	Media,Social	Thailand	Make statement	010	0	Police (Thailand)	Police,Government	Thailand	49097650	2	Bangkok Post	satun			Thailand	6.6	100.083
34075765	2019-03-10	Cambodia		Cambodia	Express intent to cooperate	030	4	Laos		Laos	49097662	1	Vietnam News Agency Bulletin	Siem Reap		Siem Reap	Cambodia	13.3618	103.861
34075766	2019-03-10	Vietnam		Vietnam	Express intent to cooperate	030	4	Laos		Laos	49097662	1	Vietnam News Agency Bulletin	Siem Reap		Siem Reap	Cambodia	13.3618	103.861
34075767	2019-03-10	Laos		Laos	Express intent to cooperate	030	4	Cambodia		Cambodia	49097662	1	Vietnam News Agency Bulletin	Siem Reap		Siem Reap	Cambodia	13.3618	103.861
34075768	2019-03-10	Vietnam		Vietnam	Express intent to cooperate	030	4	Cambodia		Cambodia	49097662	1	Vietnam News Agency Bulletin	Siem Reap		Siem Reap	Cambodia	13.3618	103.861
34075769	2019-03-10	Laos		Laos	Express intent to cooperate	030	4	Vietnam		Vietnam	49097662	1	Vietnam News Agency Bulletin	Siem Reap		Siem Reap	Cambodia	13.3618	103.861
34075770	2019-03-10	Cambodia		Cambodia	Express intent to cooperate	030	4	Vietnam		Vietnam	49097662	1	Vietnam News Agency Bulletin	Siem Reap		Siem Reap	Cambodia	13.3618	103.861
34075786	2019-03-10	Citizen (Canada)	General Population / Civilian / Social,Social	Canada	Reject	120	-4	Government (Canada)	Government	Canada	49097665	2	The Toronto Star				Canada	45.4112	-75.6981
34075782	2019-03-10	Member of Parliament (Canada)	Government,Legislative / Parliamentary	Canada	Make statement	010	0	Justin Trudeau	Government,Executive Office,Legislative / Parliamentary,Executive,Center Left,Ideological,Parties,(National) Major Party	Canada	49097668	3	The Toronto Star	Ottawa		Ontario	Canada	45.4112	-75.6981
34075785	2019-03-10	Main Opposition (Canada)	Protestors / Popular Opposition / Mobs,Dissident	Canada	Accuse	112	-2	Citizen (Canada)	General Population / Civilian / Social,Social	Canada	49097669	3	The Toronto Star	Ottawa		Ontario	Canada	45.4112	-75.6981
34075784	2019-03-10	Main Opposition (Canada)	Protestors / Popular Opposition / Mobs,Dissident	Canada	Criticize or denounce	111	-2	Citizen (Canada)	General Population / Civilian / Social,Social	Canada	49097669	6	The Toronto Star	Ottawa		Ontario	Canada	45.4112	-75.6981
34075781	2019-03-10	York University	Education,Social	Canada	Consider policy option	014	0	Citizen (United States)	Social,General Population / Civilian / Social	United States	49097670	4	The Toronto Star	Eden		Nova Scotia	Canada	45.8501	-61.1318
34075796	2019-03-10	Opposition Supporter (Venezuela)	Dissident,Protestors / Popular Opposition / Mobs	Venezuela	Demonstrate or rally	141	-6.5	Unspecified Actor	Unspecified		49097676	1	The Toronto Star	Caracas	Municipio Libertador	Distrito Capital	Venezuela	10.488	-66.8792
34075797	2019-03-10	Protester (Venezuela)	Dissident,Protestors / Popular Opposition / Mobs	Venezuela	Protest violently, riot	145	-7.5	Police (Venezuela)	Police,Government	Venezuela	49097676	2	The Toronto Star	Caracas	Municipio Libertador	Distrito Capital	Venezuela	10.488	-66.8792
34075798	2019-03-10	Police (Venezuela)	Police,Government	Venezuela	Use tactics of violent repression	175	-9	Protester (Venezuela)	Dissident,Protestors / Popular Opposition / Mobs	Venezuela	49097676	2	The Toronto Star	Caracas	Municipio Libertador	Distrito Capital	Venezuela	10.488	-66.8792
34075771	2019-03-10	Algeria		Algeria	Express intent to meet or negotiate	036	4	Switzerland		Switzerland	49097682	1	Reuters News	Algiers		Wilaya d' Alger	Algeria	36.7525	3.04197
34075804	2019-03-10	Citizen (Venezuela)	Social,General Population / Civilian / Social	Venezuela	Use unconventional violence	180	-9	Business (Venezuela)	Business,Social	Venezuela	49097689	6	Al Jazeera English	Caracas	Municipio Libertador	Distrito Capital	Venezuela	10.488	-66.8792
34075802	2019-03-10	Abdelaziz Bouteflika	Executive,Executive Office,Far Left,Ideological,Government,(National) Major Party,Parties,Elite	Algeria	Express intent to meet or negotiate	036	4	Switzerland		Switzerland	49097691	3	Al Jazeera English	Geneve		Canton de Geneve	Switzerland	46.2022	6.14569
34075845	2019-03-10	Military (Syria)	Military,Government	Syria	Make statement	010	0	Combatant (Syria)	Unidentified Forces	Syria	49097721	6	Reuters News				Syria	33.5102	36.2913
34075809	2019-03-10	Police (Malaysia)	Police,Government	Malaysia	Arrest, detain, or charge with legal action	173	-5	Citizen (Egypt)	Social,General Population / Civilian / Social	Egypt	49097723	1	Associated Press Newswires	Kuala Lumpur		Kuala Lumpur	Malaysia	3.1412	101.687
34075810	2019-03-10	Police (Malaysia)	Police,Government	Malaysia	Arrest, detain, or charge with legal action	173	-5	Men (Tunisia)	Social,General Population / Civilian / Social	Tunisia	49097723	1	Associated Press Newswires	Kuala Lumpur		Kuala Lumpur	Malaysia	3.1412	101.687
34075846	2019-03-10	Palestinian Territory, Occupied		Occupied Palestinian Territory	Make statement	010	0	Mahmoud Abbas	Executive Office,Government,Executive,Elite	Occupied Palestinian Territory	49097724	1	Associated Press Newswires	Ramallah		West Bank	Occupied Palestinian Territory	31.8996	35.2042
34075819	2019-03-10	Moon Jae-in	Executive Office,Government,Executive	South Korea	Make a visit	042	1.9	Brunei		Brunei	49097726	2	Yonhap English News	Bandar Seri Begawan		Brunei and Muara District	Brunei	4.94029	114.948
34075821	2019-03-10	Brunei		Brunei	Host a visit	043	2.8	Moon Jae-in	Executive Office,Government,Executive	South Korea	49097726	2	Yonhap English News	Bandar Seri Begawan		Brunei and Muara District	Brunei	4.94029	114.948
34075820	2019-03-10	South Korea		South Korea	Make a visit	042	1.9	Brunei		Brunei	49097726	3	Yonhap English News	Bandar Seri Begawan		Brunei and Muara District	Brunei	4.94029	114.948
34075822	2019-03-10	Brunei		Brunei	Host a visit	043	2.8	South Korea		South Korea	49097726	3	Yonhap English News	Bandar Seri Begawan		Brunei and Muara District	Brunei	4.94029	114.948
34075807	2019-03-10	Algeria		Algeria	Express intent to meet or negotiate	036	4	Switzerland		Switzerland	49097732	1	Reuters News	Geneve		Canton de Geneve	Switzerland	46.2022	6.14569
34075808	2019-03-10	Citizen (Algeria)	Social,General Population / Civilian / Social	Algeria	Demonstrate or rally	141	-6.5	Unspecified Actor	Unspecified		49097732	4	Reuters News	Geneve		Canton de Geneve	Switzerland	46.2022	6.14569
34075811	2019-03-10	Government (Nicaragua)	Government	Nicaragua	Return, release person(s)	0841	7	Detainee (Nicaragua)	Protestors / Popular Opposition / Mobs,Dissident	Nicaragua	49097736	3	Deutsche Welle				Nicaragua	12.1328	-86.2504
34075857	2019-03-10	Head of Government (Italy)	Executive Office,Government,Executive	Italy	Make an appeal or request	020	3	Business (Italy)	Business,Social	Italy	49097737	5	Deutsche Welle	Turin	Provincia di Torino	Regione Piemonte	Italy	45.0705	7.68682
34075851	2019-03-10	Protester (China)	Dissident,Protestors / Popular Opposition / Mobs	China	Obstruct passage, block	144	-7.5	Unspecified Actor	Unspecified		49097738	5	Deutsche Welle	Lhasa		Tibet Autonomous Region	China	29.65	91.1
34075852	2019-03-10	Protester (China)	Dissident,Protestors / Popular Opposition / Mobs	China	Reduce relations	160	-4	China		China	49097738	6	Deutsche Welle	Beijing		Beijing Shi	China	39.9075	116.397
34075848	2019-03-10	Kim Jong-Un	Elite,Government,Executive Office,Government Major Party (In Government),(National) Major Party,Parties,Executive	North Korea	Engage in negotiation	046	7	Donald Trump	Government,Executive,Executive Office	United States	49097739	4	Deutsche Welle	Hanoi		Thanh Pho Ha Noi	Vietnam	21.0245	105.841
34075849	2019-03-10	Donald Trump	Government,Executive,Executive Office	United States	Engage in negotiation	046	7	Kim Jong-Un	Elite,Government,Executive Office,Government Major Party (In Government),(National) Major Party,Parties,Executive	North Korea	49097739	4	Deutsche Welle	Hanoi		Thanh Pho Ha Noi	Vietnam	21.0245	105.841
34075826	2019-03-10	John Pombe Magufuli	Ideological,Center Left,Executive Office,Cabinet,Executive,Housing / Construction Ministry,Government,Parties,(National) Major Party,Unicameral,Legislative / Parliamentary	Tanzania	Make an appeal or request	020	3	Citizen (Tanzania)	General Population / Civilian / Social,Social	Tanzania	49097742	1	All Africa	Dar es Salaam		Dar es Salaam Region	Tanzania	-6.82349	39.2695
34075828	2019-03-10	Government (Tanzania)	Government	Tanzania	Engage in diplomatic cooperation	050	3.5	Company - Owner or Operator (Tanzania)	Business,Social	Tanzania	49097742	3	All Africa	Dar es Salaam		Dar es Salaam Region	Tanzania	-6.82349	39.2695
34075827	2019-03-10	Tanzania		Tanzania	Express intent to engage in diplomatic cooperation (such as policy support)	032	4.5	Representatives (Tanzania)	Legislative / Parliamentary,Government	Tanzania	49097742	4	All Africa	Dar es Salaam		Dar es Salaam Region	Tanzania	-6.82349	39.2695
34075805	2019-03-10	Newspaper (Iraq)	Media,Social	Iraq	Make statement	010	0	Other Authorities / Officials (Iraq)	Government	Iraq	49097744	4	Xinhua News Agency	Baghdad		Muhafazat Baghdad	Iraq	33.3406	44.4009
34075858	2019-03-10	Election Commission (India)	Government,Elections Ministry,Executive	India	Demand	100	-5	Political Parties (India)	Parties	India	49097750	3	Reuters News			State of Jammu and Kashmir	India	33.9167	76.6667
34075843	2019-03-10	Donald Trump	Government,Executive,Executive Office	United States	Criticize or denounce	111	-2	China		China	49097751	1	Kyodo News	Beijing		Beijing Shi	China	39.9075	116.397
34075841	2019-03-10	China		China	Express intent to cooperate	030	4	United States		United States	49097751	2	Kyodo News	Beijing		Beijing Shi	China	39.9075	116.397
34075842	2019-03-10	United States		United States	Express intent to cooperate	030	4	China		China	49097751	2	Kyodo News	Beijing		Beijing Shi	China	39.9075	116.397
34075853	2019-03-10	India		India	Use conventional military force	190	-10	Narendra Modi	Hindu,Ideological,Dissident,International Religious,Nationalist,Opposition Major Party (Out Of Government),(National) Major Party,Parties,Radicals / Extremists / Fundamentalists,Elite,Far Right	India	49097752	1	Indo-Asian News Service	Pulwama		State of Jammu and Kashmir	India	33.8741	74.8996
34075818	2019-03-10	Foreign Affairs (Russia)	Government,Foreign Ministry,Executive	Russian Federation	Make statement	010	0	Employee (United States)	Labor,Social	United States	49097754	6	Interfax News Service	Moscow		Moskva	Russian Federation	55.7522	37.6156
34075825	2019-03-10	Ministry (Egypt)	Government	Egypt	Accede to demands for change in leadership	0831	5	Egypt		Egypt	49097756	1	Associated Press Newswires	Cairo		Muhafazat al Qahirah	Egypt	30.0626	31.2497
34075823	2019-03-10	Foreign Affairs (France)	Foreign Ministry,Executive,Government	France	Make statement	010	0	Vietnam		Vietnam	49097760	5	Vietnam News Agency Bulletin	Ho Chi Minh City		Ho Chi Minh City	Vietnam	10.823	106.63
34075824	2019-03-10	Foreign Affairs (France)	Foreign Ministry,Executive,Government	France	Make statement	010	0	France		France	49097760	5	Vietnam News Agency Bulletin	Ho Chi Minh City		Ho Chi Minh City	Vietnam	10.823	106.63
34075832	2019-03-10	Police (India)	Government,Police	India	Arrest, detain, or charge with legal action	173	-5	Citizen (India)	General Population / Civilian / Social,Social	India	49097772	2	Hindustan Times	Pune	Satara Division	State of Maharashtra	India	18.5196	73.8553
34075850	2019-03-10	Police (India)	Government,Police	India	Arrest, detain, or charge with legal action	173	-5	Citizen (India)	General Population / Civilian / Social,Social	India	49097774	1	Hindustan Times	Pune	Satara Division	State of Maharashtra	India	18.5196	73.8553
34075812	2019-03-10	Amarinder Singh	Government,Local,Provincial,Legislative / Parliamentary	India	Praise or endorse	051	3.4	Election Commission (India)	Government,Elections Ministry,Executive	India	49097775	2	Indo-Asian News Service	Chandigarh		Union Territory of Chandigarh	India	30.7363	76.7884
34075829	2019-03-10	Syria		Syria	Make an appeal or request	020	3	Russia		Russian Federation	49097776	2	Interfax News Service	Moscow		Moskva	Russian Federation	55.7522	37.6156
34075830	2019-03-10	Russia		Russian Federation	Make an appeal or request	020	3	Syria		Syria	49097776	2	Interfax News Service	Moscow		Moskva	Russian Federation	55.7522	37.6156
34075855	2019-03-10	Hassan Rouhani	Government Religious,Ideological,Elite,Defense / Security Ministry,(National) Major Party,Parties,Government,Executive,Executive Office,Far Right	Iran	Demand	100	-5	Pakistan		Pakistan	49097778	1	Agence France-Presse	Tehran		Tehran Province	Iran	35.6944	51.4215
34075854	2019-03-10	Iran		Iran	Make statement	010	0	Armed Gang (Pakistan)	Unidentified Forces	Pakistan	49097778	2	Agence France-Presse	Tehran		Tehran Province	Iran	35.6944	51.4215
34075856	2019-03-10	Iran		Iran	Accuse	112	-2	Military (Pakistan)	Military,Government	Pakistan	49097778	4	Agence France-Presse	Tehran		Tehran Province	Iran	35.6944	51.4215
34075847	2019-03-10	Foreign Affairs (Australia)	Executive,Foreign Ministry,Government	Australia	Make statement	010	0	Melania Trump	Elite	United States	49097779	1	Agence France-Presse				Australia	-35.2835	149.128
34075861	2019-03-10	United States		United States	Demand	100	-5	India		India	49097804	1	Reuters News			Washington D.C.	United States	38.9171	-77.0003
34075866	2019-03-10	Media Personnel (Sweden)	Social,Media	Sweden	Make statement	010	0	Sweden		Sweden	49097821	3	Associated Press Newswires	Stockholm	Stockholms Kommun	Stockholm	Sweden	59.3326	18.0649
34075864	2019-03-10	Militant (Myanmar)	Unidentified Forces	Myanmar	Use unconventional violence	180	-9	Military (Myanmar)	Military,Government	Myanmar	49097831	1	Dow Jones News Service			Rakhine State	Myanmar	19	94.25
34075865	2019-03-10	Military (Myanmar)	Military,Government	Myanmar	Use conventional military force	190	-10	Militant (Myanmar)	Unidentified Forces	Myanmar	49097831	1	Dow Jones News Service			Rakhine State	Myanmar	19	94.25
34075863	2019-03-10	Combatant (Myanmar)	Unidentified Forces	Myanmar	Use unconventional violence	180	-9	Police (Myanmar)	Government,Police	Myanmar	49097831	2	Dow Jones News Service			Rakhine State	Myanmar	19	94.25
34075871	2019-03-10	Lawmaker (United Kingdom)	Legislative / Parliamentary,Government	United Kingdom	Praise or endorse	051	3.4	Government (United Kingdom)	Government	United Kingdom	49097839	1	Reuters News	London	Greater London	England	United Kingdom	51.5085	-0.12574
34075876	2019-03-10	Insurgent (Myanmar)	Rebel,Dissident	Myanmar	Use unconventional violence	180	-9	Police (Myanmar)	Government,Police	Myanmar	49097841	2	Reuters News	Yangon		Yangon Region	Myanmar	16.8053	96.1561
34075881	2019-03-10	Citizen (Ukraine)	General Population / Civilian / Social,Social	Ukraine	Use unconventional violence	180	-9	Police (Ukraine)	Police,Government	Ukraine	49097846	1	Agence France-Presse	Cherkasy		L'vivs'ka Oblast'	Ukraine	49.5833	23.9
34075880	2019-03-10	Citizen (Ukraine)	General Population / Civilian / Social,Social	Ukraine	Accuse of crime, corruption	1121	-2	Government (Ukraine)	Government	Ukraine	49097846	2	Agence France-Presse	Cherkasy		L'vivs'ka Oblast'	Ukraine	49.5833	23.9
34075867	2019-03-10	Arthur Peter Mutharika	Education Ministry,Executive Office,Government,Cabinet,Executive,Science / Tech / Knowledge / Innovation Ministry	Malawi	Demand	100	-5	Military (Malawi)	Government,Military	Malawi	49097848	6	Trend News Agency (Azerbaijan)	Neno	Neno District	Southern Region	Malawi	-15.3981	34.6534
34075875	2019-03-10	Citizen (Canada)	General Population / Civilian / Social,Social	Canada	Reject	120	-4	Government (Canada)	Government	Canada	49097850	2	The Toronto Star				Canada	45.4112	-75.6981
34075870	2019-03-10	Donald Trump	Executive,Government,Executive Office	United States	Criticize or denounce	111	-2	China		China	49097856	3	Kyodo News	Beijing		Beijing Shi	China	39.9075	116.397
34075868	2019-03-10	China		China	Express intent to cooperate	030	4	United States		United States	49097856	4	Kyodo News	Beijing		Beijing Shi	China	39.9075	116.397
34075869	2019-03-10	United States		United States	Express intent to cooperate	030	4	China		China	49097856	4	Kyodo News	Beijing		Beijing Shi	China	39.9075	116.397
34075897	2019-03-10	Activist (Ukraine)	Human Rights IGOs,Nongovernmental Organizations / Activists,Human Rights NGOs,Nongovernmental Organization (International)	Ukraine	Demonstrate or rally	141	-6.5	Unspecified Actor	Unspecified		49097909	4	Xinhua News Agency	Cherkasy		Cherkas'ka Oblast'	Ukraine	49.4285	32.0621
34075896	2019-03-10	Activist (Ukraine)	Human Rights IGOs,Nongovernmental Organizations / Activists,Human Rights NGOs,Nongovernmental Organization (International)	Ukraine	Rally opposition against	113	-2	Citizen (Ukraine)	Social,General Population / Civilian / Social	Ukraine	49097909	5	Xinhua News Agency	Cherkasy		Cherkas'ka Oblast'	Ukraine	49.4285	32.0621
34075898	2019-03-10	Activist (Ukraine)	Human Rights IGOs,Nongovernmental Organizations / Activists,Human Rights NGOs,Nongovernmental Organization (International)	Ukraine	Demonstrate or rally	141	-6.5	Other Authorities / Officials (Ukraine)	Government	Ukraine	49097909	5	Xinhua News Agency	Cherkasy		Cherkas'ka Oblast'	Ukraine	49.4285	32.0621
34075899	2019-03-10	Activist (Ukraine)	Human Rights IGOs,Nongovernmental Organizations / Activists,Human Rights NGOs,Nongovernmental Organization (International)	Ukraine	Protest violently, riot	145	-7.5	Police (Ukraine)	Government,Police	Ukraine	49097909	6	Xinhua News Agency	Cherkasy		Cherkas'ka Oblast'	Ukraine	49.4285	32.0621
34075900	2019-03-10	Police (Ukraine)	Government,Police	Ukraine	Use tactics of violent repression	175	-9	Activist (Ukraine)	Human Rights IGOs,Nongovernmental Organizations / Activists,Human Rights NGOs,Nongovernmental Organization (International)	Ukraine	49097909	6	Xinhua News Agency	Cherkasy		Cherkas'ka Oblast'	Ukraine	49.4285	32.0621
34075975	2019-03-10	Mahmoud Abbas	Elite,Government,Executive Office,Executive	Occupied Palestinian Territory	Appeal for change in institutions, regime	0244	-0.3	Muhammad Ishtayyah	Dissident,Center Left,Parties,(National) Major Party,Ideological	Occupied Palestinian Territory	49097921	2	Agence France-Presse				Occupied Palestinian Territory	31.9216	35.2033
34075974	2019-03-10	Military (Syria)	Military,Government	Syria	Use conventional military force	190	-10	Citizen (United States)	Social,General Population / Civilian / Social	United States	49097922	2	Agence France-Presse				Syria	33.5102	36.2913
34075971	2019-03-10	Army Chief of Staff (Algeria)	Military,Government,Army	Algeria	Make statement	010	0	Military (Algeria)	Military,Government	Algeria	49097929	2	Reuters News	Algiers		Wilaya d' Alger	Algeria	36.7525	3.04197
34075976	2019-03-10	Citizen (Serbia)	General Population / Civilian / Social,Social	Serbia	Demonstrate or rally	141	-6.5	Aleksandar Vučić	(National) Major Party,Parties,(National) Minor Party,Executive Office,Ideological,Center Right,Executive,Elite,Far Right,Government,Nationalist	Serbia	49097933	2	HINA	Belgrade		Central Serbia	Serbia	44.804	20.4651
34075977	2019-03-10	Protester (Serbia)	Dissident,Protestors / Popular Opposition / Mobs	Serbia	Demonstrate or rally	141	-6.5	Aleksandar Vučić	(National) Major Party,Parties,(National) Minor Party,Executive Office,Ideological,Center Right,Executive,Elite,Far Right,Government,Nationalist	Serbia	49097933	3	HINA	Belgrade		Central Serbia	Serbia	44.804	20.4651
34075889	2019-03-10	Russia		Russian Federation	Criticize or denounce	111	-2	United States		United States	49097934	4	FARS News Agency			Washington D.C.	United States	38.9171	-77.0003
34075890	2019-03-10	Syria		Syria	Criticize or denounce	111	-2	United States		United States	49097934	4	FARS News Agency			Washington D.C.	United States	38.9171	-77.0003
34075969	2019-03-10	Head of Government (Italy)	Government,Executive,Executive Office	Italy	Consider policy option	014	0	Xi Jinping	Parties,Executive Office,Government Major Party (In Government),(National) Major Party,Government,Elite,Military,Executive,Unicameral,Legislative / Parliamentary	China	49097936	4	FARS News Agency	Rome	Provincia di Roma	Lazio	Italy	41.8947	12.4839
34075970	2019-03-10	Media Personnel (United States)	Social,Media	United States	Threaten	130	-4.4	Italy		Italy	49097936	6	FARS News Agency	Rome	Provincia di Roma	Lazio	Italy	41.8947	12.4839
34075983	2019-03-10	Boeing	Social,Business,Science / Tech / Knowledge / Innovation Business	United States	Make a visit	042	1.9	Kenya		Kenya	49097940	4	FARS News Agency	Nairobi		Nairobi Province	Kenya	-1.28333	36.8167
34075984	2019-03-10	Kenya		Kenya	Host a visit	043	2.8	Boeing	Social,Business,Science / Tech / Knowledge / Innovation Business	United States	49097940	4	FARS News Agency	Nairobi		Nairobi Province	Kenya	-1.28333	36.8167
34075904	2019-03-10	Agence France-Presse	Social,News,Media	France	Discuss by telephone	041	1	Media Personnel (Mexico)	Social,Media	Mexico	49097941	2	FARS News Agency		Guanajuato	Estado de Guanajuato	Mexico	21.0048	-101.265
34075905	2019-03-10	Media Personnel (Mexico)	Social,Media	Mexico	Discuss by telephone	041	1	Agence France-Presse	Social,News,Media	France	49097941	2	FARS News Agency		Guanajuato	Estado de Guanajuato	Mexico	21.0048	-101.265
34075906	2019-03-10	Armed Band (Mexico)	Unidentified Forces	Mexico	fight with small arms and light weapons	193	-10	Puerto Rico		Puerto Rico	49097941	4	FARS News Agency	Salamanca		Estado de Chihuahua	Mexico	27.25	-105.617
34075957	2019-03-10	Student (Algeria)	Education,Social	Algeria	Criticize or denounce	111	-2	Citizen (Algeria)	General Population / Civilian / Social,Social	Algeria	49097943	4	FARS News Agency	Algiers		Wilaya d' Alger	Algeria	36.7525	3.04197
34075958	2019-03-10	Citizen (Algeria)	General Population / Civilian / Social,Social	Algeria	Conduct strike or boycott	143	-6.5	Unspecified Actor	Unspecified		49097943	5	FARS News Agency	Algiers		Wilaya d' Alger	Algeria	36.7525	3.04197
34075959	2019-03-10	Student (Algeria)	Education,Social	Algeria	Conduct strike or boycott	143	-6.5	Unspecified Actor	Unspecified		49097943	5	FARS News Agency	Algiers		Wilaya d' Alger	Algeria	36.7525	3.04197
34075960	2019-03-10	Police (Algeria)	Police,Government	Algeria	Impose blockade, restrict movement	191	-9.5	Government (Algeria)	Government	Algeria	49097943	6	FARS News Agency	Algiers		Wilaya d' Alger	Algeria	36.7525	3.04197
34075882	2019-03-10	Protester (France)	Dissident,Protestors / Popular Opposition / Mobs	France	Demonstrate or rally	141	-6.5	Unspecified Actor	Unspecified		49097944	2	FARS News Agency	Paris	Paris	Region Ile-de-France	France	48.8534	2.3488
34075884	2019-03-10	Protester (France)	Dissident,Protestors / Popular Opposition / Mobs	France	Protest violently, riot	145	-7.5	Police (France)	Police,Government	France	49097944	3	FARS News Agency	Paris	Paris	Region Ile-de-France	France	48.8534	2.3488
34075885	2019-03-10	Police (France)	Police,Government	France	Use tactics of violent repression	175	-9	Protester (France)	Dissident,Protestors / Popular Opposition / Mobs	France	49097944	3	FARS News Agency	Paris	Paris	Region Ile-de-France	France	48.8534	2.3488
34075883	2019-03-10	Citizen (France)	Social,General Population / Civilian / Social	France	Demonstrate or rally	141	-6.5	Unspecified Actor	Unspecified		49097944	5	FARS News Agency	Paris	Paris	Region Ile-de-France	France	48.8534	2.3488
34075913	2019-03-10	Terrorist Leader (Syria)	Rebel,Dissident	Syria	Use unconventional violence	180	-9	Military (Syria)	Military,Government	Syria	49097946	2	FARS News Agency	Hamah		Muhafazat Hamah	Syria	35.1318	36.7578
34075914	2019-03-10	Terrorist Leader (Syria)	Rebel,Dissident	Syria	Use unconventional violence	180	-9	Citizen (Syria)	General Population / Civilian / Social,Social	Syria	49097946	2	FARS News Agency	Hamah		Muhafazat Hamah	Syria	35.1318	36.7578
34075915	2019-03-10	Military (Syria)	Military,Government	Syria	Use conventional military force	190	-10	Terrorist Leader (Syria)	Rebel,Dissident	Syria	49097946	2	FARS News Agency	Hamah		Muhafazat Hamah	Syria	35.1318	36.7578
34075916	2019-03-10	Military (Syria)	Military,Government	Syria	Use conventional military force	190	-10	Syria		Syria	49097946	6	FARS News Agency			Idlib	Syria	35.7667	36.6667
34075917	2019-03-10	Head of Government (Venezuela)	Government,Executive Office,Executive	Venezuela	Make an appeal or request	020	3	Citizen (Venezuela)	General Population / Civilian / Social,Social	Venezuela	49097957	3	L'Expression	Guri		Estado Bolivar	Venezuela	7.65	-62.8333
34075931	2019-03-10	Attacker (Iraq)	Criminals / Gangs,Dissident	Iraq	Use unconventional violence	180	-9	Military (Iraq)	Government,Military	Iraq	49097964	2	L'Expression	Baghdad		Muhafazat Baghdad	Iraq	33.3406	44.4009
34075930	2019-03-10	Police (Iraq)	Government,Police	Iraq	Make statement	010	0	Military (Iraq)	Government,Military	Iraq	49097964	3	L'Expression	Baghdad		Muhafazat Baghdad	Iraq	33.3406	44.4009
34075980	2019-03-10	Donald Trump	Executive Office,Executive,Government	United States	Threaten	130	-4.4	Canada		Canada	49097965	6	L'Expression				Canada	45.4112	-75.6981
34075981	2019-03-10	Donald Trump	Executive Office,Executive,Government	United States	Threaten	130	-4.4	Mexico		Mexico	49097965	6	L'Expression				Mexico	19.4285	-99.1277
34075941	2019-03-10	Police (Russia)	Government,Police	Russian Federation	Use tactics of violent repression	175	-9	Activist (Russia)	Human Rights NGOs,Human Rights IGOs,Nongovernmental Organization (International),Nongovernmental Organizations / Activists	Russian Federation	49098001	2	Interfax News Service	Moscow		Moskva	Russian Federation	55.7522	37.6156
34075940	2019-03-10	Police (Russia)	Government,Police	Russian Federation	Arrest, detain, or charge with legal action	173	-5	Citizen (Russia)	Social,General Population / Civilian / Social	Russian Federation	49098001	3	Interfax News Service	Moscow		Moskva	Russian Federation	55.7522	37.6156
34075934	2019-03-10	Abdel Fattah Al-Sisi	International Religious,Government,Sunni,Executive,Elite,Executive Office	Egypt	Make statement	010	0	House of Representatives (Egypt)	Government,Legislative / Parliamentary	Egypt	49098009	2	Xinhua News Agency	Cairo		Muhafazat al Qahirah	Egypt	30.0626	31.2497
34075891	2019-03-10	Citizen (France)	Social,General Population / Civilian / Social	France	Demonstrate or rally	141	-6.5	Unspecified Actor	Unspecified		49098027	1	El Mercurio				France	48.8534	2.3486
34075932	2019-03-10	Recep Tayyip Erdoğan	Sunni,Elite,Ideological,Center Right,Executive Office,International Religious,Government,Parties,Executive,(National) Major Party	Turkey	Criticize or denounce	111	-2	Citizen (Turkey)	Social,General Population / Civilian / Social	Turkey	49098051	1	Agence France-Presse	Istanbul		Istanbul	Turkey	41.0138	28.9497
34075933	2019-03-10	Republican People's Party	Center Left,Parties,(National) Major Party,Ideological	Turkey	Demonstrate or rally	141	-6.5	Unspecified Actor	Unspecified		49098051	4	Agence France-Presse	Taksim		Istanbul	Turkey	41.0371	28.9866
34075963	2019-03-10	Foreign Affairs (Russia)	Government,Foreign Ministry,Executive	Russian Federation	Express intent to meet or negotiate	036	4	Healthcare Facility (United Kingdom)	Social,Medical / Health	United Kingdom	49098053	1	ITAR Tass	Salisbury and Wilton	Wiltshire	England	United Kingdom	51.0797	-1.80924
34075964	2019-03-10	United Kingdom		United Kingdom	Accuse	112	-2	Russia		Russian Federation	49098053	6	ITAR Tass			Britain	United Kingdom	53.5938	-1.86823
34075965	2019-03-10	United Kingdom		United Kingdom	Reduce or break diplomatic relations	161	-4	Foreign Affairs (Russia)	Government,Foreign Ministry,Executive	Russian Federation	49098053	6	ITAR Tass			Britain	United Kingdom	53.5938	-1.86823
34075918	2019-03-10	Lawmaker (United Kingdom)	Legislative / Parliamentary,Government	United Kingdom	Praise or endorse	051	3.4	Government (United Kingdom)	Government	United Kingdom	49098057	2	Reuters News	London	Greater London	England	United Kingdom	51.5085	-0.12574
34075892	2019-03-10	United States		United States	Demand	100	-5	India		India	49098058	1	Reuters News			Washington D.C.	United States	38.9171	-77.0003
34075924	2019-03-10	Lawmaker (United Kingdom)	Legislative / Parliamentary,Government	United Kingdom	Praise or endorse	051	3.4	Government (United Kingdom)	Government	United Kingdom	49098061	1	Reuters News	London	Greater London	England	United Kingdom	51.5085	-0.12574
34075935	2019-03-10	Abdelaziz Bouteflika	Far Left,Executive,Ideological,Government,Executive Office,Parties,(National) Major Party,Elite	Algeria	Express intent to meet or negotiate	036	4	Algeria		Algeria	49098062	1	Reuters News	Algiers		Wilaya d' Alger	Algeria	36.7525	3.04197
34075936	2019-03-10	Algeria		Algeria	Express intent to meet or negotiate	036	4	Switzerland		Switzerland	49098062	2	Reuters News	Geneve		Canton de Geneve	Switzerland	46.2022	6.14569
34075937	2019-03-10	Information Ministry (Myanmar)	Government,Information / Communication / Transparency Ministry,Executive	Myanmar	Make statement	010	0	Rebel Group (Myanmar)	Dissident,Rebel	Myanmar	49098076	1	Associated Press Newswires			Rakhine State	Myanmar	19	94.25
34075938	2019-03-10	Rebel Group (Myanmar)	Dissident,Rebel	Myanmar	Use unconventional violence	180	-9	Police (Myanmar)	Government,Police	Myanmar	49098076	1	Associated Press Newswires			Rakhine State	Myanmar	19	94.25
34075955	2019-03-10	Bruno Nabagne Kone	Media,Social,Government	Cote d'Ivoire	Make statement	010	0	Government (Cote d'Ivoire)	Government	Cote d'Ivoire	49098077	3	Agence Ivoirienne de Presse	Abidjan		Lagunes	Cote d'Ivoire	5.30966	-4.01266
34075942	2019-03-10	Member of Parliament (Cote d'Ivoire)	Legislative / Parliamentary,Government	Cote d'Ivoire	Make an appeal or request	020	3	Women (Cote d'Ivoire)	Social,General Population / Civilian / Social	Cote d'Ivoire	49098078	6	Agence Ivoirienne de Presse	Bouafle		Marahoue	Cote d'Ivoire	6.99041	-5.7442
34076025	2019-03-10	Sudan		Sudan	Arrest, detain, or charge with legal action	173	-5	Umma Party	Parties,(National) Minor Party	Egypt	49098123	1	Reuters News	Cairo		Muhafazat al Qahirah	Egypt	30.0626	31.2497
34076004	2019-03-10	Citizen (Russia)	Social,General Population / Civilian / Social	Russian Federation	Demonstrate or rally	141	-6.5	Unspecified Actor	Unspecified		49098124	1	Reuters News	Moscow		Moskva	Russian Federation	55.7522	37.6156
34076005	2019-03-10	Citizen (Russia)	Social,General Population / Civilian / Social	Russian Federation	Demonstrate or rally	141	-6.5	Unspecified Actor	Unspecified		49098124	4	Reuters News	Moscow		Moskva	Russian Federation	55.7522	37.6156
34076023	2019-03-10	Abdel Fattah Al-Sisi	Sunni,Elite,Government,Executive,Executive Office,International Religious	Egypt	Praise or endorse	051	3.4	Wazir Tribe in Pakistan	Social,National Ethnic,International Ethnic,Pashtun	Pakistan	49098126	1	Reuters News	Cairo		Muhafazat al Qahirah	Egypt	30.0626	31.2497
34076022	2019-03-10	Abdel Fattah Al-Sisi	Sunni,Elite,Government,Executive,Executive Office,International Religious	Egypt	Make statement	010	0	Wazir Tribe in Pakistan	Social,National Ethnic,International Ethnic,Pashtun	Pakistan	49098126	5	Reuters News	Cairo		Muhafazat al Qahirah	Egypt	30.0626	31.2497
34075992	2019-03-10	Apple Inc.	Science / Tech / Knowledge / Innovation Business,Business,Social,Multinational Corporation		Make statement	010	0	Representatives (United States)	Government,Legislative / Parliamentary	United States	49098132	5	Associated Press Newswires	Chicago	Cook County	Illinois	United States	41.85	-87.65
34075995	2019-03-10	Vladimir Putin	Elite,Center Right,Parties,Ideological,(National) Major Party,Government,Executive Office,Executive	Russian Federation	Make empathetic comment	018	3.4	Head of Government (Ethiopia)	Executive Office,Government,Executive	Ethiopia	49098134	1	ITAR Tass	Moscow Kremlin		Moskovskaya Oblast'	Russian Federation	55.7517	37.6178
34075996	2019-03-10	Vladimir Putin	Elite,Center Right,Parties,Ideological,(National) Major Party,Government,Executive Office,Executive	Russian Federation	Make empathetic comment	018	3.4	Abiy Ahmed	Elite,Oromo,(National) Minor Party,Center Left,Ideological,Executive Office,Government,Executive,International Ethnic,Parties	Ethiopia	49098134	1	ITAR Tass	Moscow Kremlin		Moskovskaya Oblast'	Russian Federation	55.7517	37.6178
34076024	2019-03-10	Army Chief of Staff (Algeria)	Government,Military,Army	Algeria	Make statement	010	0	Algeria		Algeria	49098150	1	Reuters News				Algeria	36.7525	3.04197
34076040	2019-03-10	Cabinet / Council of Ministers / Advisors (India)	Executive,Government,Cabinet	India	Demand change in leadership	1041	-5	Citizen (India)	Social,General Population / Civilian / Social	India	49098154	5	Hindustan Times			State of Arunachal Pradesh	India	27.06	93.37
34075993	2019-03-10	India		India	Make statement	010	0	Narendra Modi	Nationalist,International Religious,Radicals / Extremists / Fundamentalists,Parties,(National) Major Party,Ideological,Opposition Major Party (Out Of Government),Elite,Far Right,Hindu,Dissident	India	49098156	1	Indo-Asian News Service	New Delhi		National Capital Territory of Delhi	India	28.6358	77.2244
34075997	2019-03-10	Citizen (Ukraine)	Social,General Population / Civilian / Social	Ukraine	Use unconventional violence	180	-9	Police (Ukraine)	Government,Police	Ukraine	49098160	2	Interfax News Service	Cherkasy		L'vivs'ka Oblast'	Ukraine	49.5833	23.9
34075998	2019-03-10	Police (Ukraine)	Government,Police	Ukraine	Use conventional military force	190	-10	Citizen (Ukraine)	Social,General Population / Civilian / Social	Ukraine	49098160	2	Interfax News Service	Cherkasy		L'vivs'ka Oblast'	Ukraine	49.5833	23.9
34076007	2019-03-10	Foreign Affairs (Australia)	Foreign Ministry,Government,Executive	Australia	Make statement	010	0	Julie Bishop	Finance / Economy / Commerce / Trade Ministry,Foreign Ministry,Provincial Party,Government,Legislative / Parliamentary,Executive,Parties	Australia	49098171	6	The Sydney Morning Herald	Canberra		Australian Capital Territory	Australia	-35.2835	149.128
34076012	2019-03-10	Industry (Bangladesh)	Business,Social	Bangladesh	Demonstrate or rally	141	-6.5	Government (India)	Government	India	49098179	4	Indo-Asian News Service			State of West Bengal	India	24	88
34076013	2019-03-10	Industry (Bangladesh)	Business,Social	Bangladesh	Demonstrate or rally	141	-6.5	Mamata Banerjee	Government,Government Major Party (In Government),Parties,(National) Major Party	India	49098179	4	Indo-Asian News Service			State of West Bengal	India	24	88
34075994	2019-03-10	Airline (Ethiopia)	Social,Business	Ethiopia	Make statement	010	0	Media (Ethiopia)	Social,Media	Ethiopia	49098180	4	Baltic Daily	Nairobi		Nairobi Province	Kenya	-1.28333	36.8167
34076032	2019-03-10	Citizen (Russia)	Social,General Population / Civilian / Social	Russian Federation	Demonstrate for policy change	1412	-6.5	Russia		Russian Federation	49098182	1	Agence France-Presse	Moscow		Moskva	Russian Federation	55.7522	37.6156
34076033	2019-03-10	Police (Russia)	Government,Police	Russian Federation	Arrest, detain, or charge with legal action	173	-5	Citizen (Russia)	Social,General Population / Civilian / Social	Russian Federation	49098182	6	Agence France-Presse			Siberia	Russian Federation	60	100
34076034	2019-03-10	Shinzo Abe	Elite,Executive Office,Parties,Government,(National) Major Party,Center Right,Ideological,Executive,International Religious,Shinto,Buddhist	Japan	Make statement	010	0	Government (Japan)	Government	Japan	49098184	5	Xinhua News Agency	Ginowan		Okinawa-ken	Japan	26.2626	127.761
34076035	2019-03-10	Citizen (Japan)	General Population / Civilian / Social,Social	Japan	Criticize or denounce	111	-2	Government (Japan)	Government	Japan	49098184	6	Xinhua News Agency	Ginowan		Okinawa-ken	Japan	26.2626	127.761
34076006	2019-03-10	Election Commission (India)	Executive,Government,Elections Ministry	India	Make statement	010	0	Lok Sabha	Government,Legislative / Parliamentary	India	49098198	1	Indo-Asian News Service	New Delhi		National Capital Territory of Delhi	India	28.6358	77.2244
34075999	2019-03-10	Lawyer/Attorney (Italy)	Social,Legal	Italy	Investigate crime, corruption	091	-2	Matteo Salvini	Secular,(National) Minor Party,Parties,Ideological	Italy	49098201	5	Dow Jones News Service	Rome	Provincia di Roma	Lazio	Italy	41.8947	12.4839
34076000	2019-03-10	Matteo Salvini	Secular,(National) Minor Party,Parties,Ideological	Italy	Abduct, hijack, or take hostage	181	-9	Immigrants (Italy)	Social,General Population / Civilian / Social	Italy	49098201	5	Dow Jones News Service	Rome	Provincia di Roma	Lazio	Italy	41.8947	12.4839
34076001	2019-03-10	Mahmoud Abbas	Executive,Elite,Government,Executive Office	Occupied Palestinian Territory	Appeal for change in institutions, regime	0244	-0.3	Muhammad Ishtayyah	Parties,(National) Major Party,Dissident,Center Left,Ideological	Occupied Palestinian Territory	49098202	2	Agence France-Presse				Occupied Palestinian Territory	31.9216	35.2033
34076039	2019-03-10	Abdel Fattah Al-Sisi	Sunni,Elite,Government,Executive,Executive Office,International Religious	Egypt	Make statement	010	0	Wazir Tribe in Pakistan	Social,National Ethnic,International Ethnic,Pashtun	Pakistan	49098205	2	Agence France-Presse	Cairo		Muhafazat al Qahirah	Egypt	30.0626	31.2497
34076065	2019-03-10	Sudan		Sudan	Arrest, detain, or charge with legal action	173	-5	Umma Party	Parties,(National) Minor Party	Egypt	49098227	1	Reuters News	Cairo		Muhafazat al Qahirah	Egypt	30.0626	31.2497
34076050	2019-03-10	Arvind Kejriwal	Parties,(National) Major Party,Far Left,Ideological	India	Make an appeal or request	020	3	Citizen (India)	General Population / Civilian / Social,Social	India	49098229	5	Indo-Asian News Service	New Delhi		National Capital Territory of Delhi	India	28.6358	77.2244
34076080	2019-03-10	Citizen (Venezuela)	Social,General Population / Civilian / Social	Venezuela	Demonstrate or rally	141	-6.5	Government (Venezuela)	Government	Venezuela	49098237	4	Agence France-Presse	Caracas	Municipio Libertador	Distrito Capital	Venezuela	10.488	-66.8792
34076068	2019-03-10	Saudi Arabia		Saudi Arabia	Employ aerial weapons	195	-10	Women (Saudi Arabia)	General Population / Civilian / Social,Social	Saudi Arabia	49098238	3	Yemen News Agency (SABA)		Hajjah	Muhafazat Hajjah	Yemen	15.6329	43.6063
34076069	2019-03-10	Saudi Arabia		Saudi Arabia	Employ aerial weapons	195	-10	Children (Saudi Arabia)	General Population / Civilian / Social,Social	Saudi Arabia	49098238	3	Yemen News Agency (SABA)		Hajjah	Muhafazat Hajjah	Yemen	15.6329	43.6063
34076067	2019-03-10	Combatant (Saudi Arabia)	Unidentified Forces	Saudi Arabia	Use unconventional violence	180	-9	Saudi Arabia		Saudi Arabia	49098238	5	Yemen News Agency (SABA)	Talan		Muhafazat Hajjah	Yemen	16.2986	43.3975
34076055	2019-03-10	Israel		Israel	Employ aerial weapons	195	-10	Palestinian Territory, Occupied		Occupied Palestinian Territory	49098241	1	Yemen News Agency (SABA)	Gaza		Gaza Strip	Occupied Palestinian Territory	31.5	34.4667
34076066	2019-03-10	Military Personnel (Nigeria)	Government,Military	Nigeria	Make statement	010	0	Military (Nigeria)	Government,Military	Nigeria	49098244	4	Xinhua News Agency	Abuja		Federal Capital Territory	Nigeria	9.05785	7.49508
34076098	2019-03-10	Police (Turkey)	Police,Government	Turkey	Use tactics of violent repression	175	-9	Women (Turkey)	Social,General Population / Civilian / Social	Turkey	49098249	2	Reuters News	Istanbul		Istanbul	Turkey	41.0138	28.9497
34076052	2019-03-10	Abdel Fattah Al-Sisi	Sunni,Executive,Elite,Executive Office,Government,International Religious	Egypt	Praise or endorse	051	3.4	Wazir Tribe in Pakistan	Pashtun,National Ethnic,Social,International Ethnic	Pakistan	49098251	2	Reuters News	Cairo		Muhafazat al Qahirah	Egypt	30.0626	31.2497
34076051	2019-03-10	Abdel Fattah Al-Sisi	Sunni,Executive,Elite,Executive Office,Government,International Religious	Egypt	Make statement	010	0	Wazir Tribe in Pakistan	Pashtun,National Ethnic,Social,International Ethnic	Pakistan	49098251	6	Reuters News				Egypt	30.0626	31.2497
34076081	2019-03-10	Election Commission (India)	Executive,Government,Elections Ministry	India	Make statement	010	0	Government (India)	Government	India	49098256	2	Indo-Asian News Service	New Delhi		National Capital Territory of Delhi	India	28.6358	77.2244
34076077	2019-03-10	Amit Shah	Parties,Government,(National) Major Party,Opposition Major Party (Out Of Government)	India	Make statement	010	0	Narendra Modi	Far Right,Dissident,International Religious,Elite,Hindu,Nationalist,Parties,(National) Major Party,Opposition Major Party (Out Of Government),Radicals / Extremists / Fundamentalists,Ideological	India	49098257	2	Indo-Asian News Service	New Delhi		National Capital Territory of Delhi	India	28.6358	77.2244
34076078	2019-03-10	Bharatiya Janata	Parties,(National) Major Party,Opposition Major Party (Out Of Government)	India	Make statement	010	0	India		India	49098257	5	Indo-Asian News Service	New Delhi		National Capital Territory of Delhi	India	28.6358	77.2244
34076094	2019-03-10	Men (India)	General Population / Civilian / Social,Social	India	Demand	100	-5	Government (India)	Government	India	49098259	4	Indo-Asian News Service	Jammu		State of Jammu and Kashmir	India	32.7357	74.8691
34076047	2019-03-10	Hassan Rouhani	Government,Far Right,Defense / Security Ministry,Executive,(National) Major Party,Parties,Elite,Government Religious,Ideological,Executive Office	Iran	Make a visit	042	1.9	Iraq		Iraq	49098262	4	FARS News Agency	Baghdad		Muhafazat Baghdad	Iraq	33.3406	44.4009
34076048	2019-03-10	Iraq		Iraq	Host a visit	043	2.8	Hassan Rouhani	Government,Far Right,Defense / Security Ministry,Executive,(National) Major Party,Parties,Elite,Government Religious,Ideological,Executive Office	Iran	49098262	4	FARS News Agency	Baghdad		Muhafazat Baghdad	Iraq	33.3406	44.4009
34076046	2019-03-10	Hassan Rouhani	Government,Far Right,Defense / Security Ministry,Executive,(National) Major Party,Parties,Elite,Government Religious,Ideological,Executive Office	Iran	Express intent to meet or negotiate	036	4	Iraq		Iraq	49098262	5	FARS News Agency	Baghdad		Muhafazat Baghdad	Iraq	33.3406	44.4009
34076100	2019-03-10	Media Personnel (Niger)	Social,Media	Niger	Make statement	010	0	Anatolian Agency	Government,Executive,State Media,Information / Communication / Transparency Ministry	Turkey	49098263	2	FARS News Agency	Gueskerou		Diffa	Niger	13.477	12.8431
34076101	2019-03-10	Militant (Niger)	Unidentified Forces	Niger	Use unconventional violence	180	-9	Military (Niger)	Government,Military	Niger	49098263	2	FARS News Agency	Gueskerou		Diffa	Niger	13.477	12.8431
34076102	2019-03-10	Militant (Niger)	Unidentified Forces	Niger	Use unconventional violence	180	-9	Indigenous People (Niger)	Social,General Population / Civilian / Social	Niger	49098263	2	FARS News Agency	Gueskerou		Diffa	Niger	13.477	12.8431
34076085	2019-03-10	Military (Syria)	Military,Government	Syria	Use conventional military force	190	-10	Syria		Syria	49098265	3	FARS News Agency	Ath Thawrah		Ar Raqqah	Syria	35.8345	38.5466
34076082	2019-03-10	Citizen (Sudan)	General Population / Civilian / Social,Social	Sudan	Demonstrate or rally	141	-6.5	Unspecified Actor	Unspecified		49098275	1	Agence France-Presse				Sudan	15.5466	32.5336
34076083	2019-03-10	Police (Sudan)	Government,Police	Sudan	Arrest, detain, or charge with legal action	173	-5	Citizen (Sudan)	General Population / Civilian / Social,Social	Sudan	49098275	1	Agence France-Presse				Sudan	15.5466	32.5336
34076084	2019-03-10	Sudan		Sudan	Arrest, detain, or charge with legal action	173	-5	Citizen (Sudan)	General Population / Civilian / Social,Social	Sudan	49098275	2	Agence France-Presse				Sudan	15.5466	32.5336
34076099	2019-03-10	Andrej Danko	(National) Minor Party,Parties,Far Right,Ideological	Slovakia	Make statement	010	0	Slovak National Party	(National) Minor Party,Parties,Far Right,Ideological	Slovakia	49098278	3	TASR - Tlacova Agentura Slovenskej Republiky				Slovakia	48.1482	17.1067
34076091	2019-03-10	Italy		Italy	Express intent to engage in diplomatic cooperation (such as policy support)	032	4.5	China		China	49098280	6	Reuters News	Milan	Provincia di Milano	Regione Lombardia	Italy	45.4643	9.18951
34076053	2019-03-10	Secret Agent (India)	Military,Military Intelligence,Government	India	Use conventional military force	190	-10	Citizen (India)	General Population / Civilian / Social,Social	India	49098281	2	Hindustan Times	Anantnag		State of Jammu and Kashmir	India	33.7299	75.1517
34076054	2019-03-10	Air Force (India)	Military,Air Force,Government	India	Employ aerial weapons	195	-10	India		India	49098281	3	Hindustan Times	Anantnag		State of Jammu and Kashmir	India	33.7299	75.1517
34076087	2019-03-10	Activist (India)	Nongovernmental Organization (International),Nongovernmental Organizations / Activists,Human Rights IGOs,Human Rights NGOs	India	Provide humanitarian aid	073	7.4	Children (India)	General Population / Civilian / Social,Social	India	49098283	1	Indo-Asian News Service	Imphal		State of Manipur	India	24.8081	93.9442
34076079	2019-03-10	Citizen (Syria)	General Population / Civilian / Social,Social	Syria	Demonstrate or rally	141	-6.5	Unspecified Actor	Unspecified		49098288	1	Associated Press Newswires	Daraa		Muhafazat Dar`a	Syria	32.6189	36.1021
34076045	2019-03-10	Other Authorities / Officials (Egypt)	Government	Egypt	Arrest, detain, or charge with legal action	173	-5	Militant (Al Qaeda)	Sunni,International Insurgents,International Radicals / Extremists / Fundamentalists,International Religious,International Dissident		49098301	5	Trend News Agency (Azerbaijan)	Kuala Lumpur		Kuala Lumpur	Malaysia	3.1412	101.687
34076093	2019-03-10	Armed Rebel (Yemen)	Dissident,Rebel	Yemen	Criticize or denounce	111	-2	Yemeni Armed Forces	Military,Government	Yemen	49098302	3	The Toronto Star	Sana'a		Sanaa	Yemen	15.3547	44.2067
34076092	2019-03-10	Citizen (Canada)	General Population / Civilian / Social,Social	Canada	Make optimistic comment	013	0.4	Canada		Canada	49098314	3	El Comercio	Quebec		Quebec	Canada	46.8123	-71.2145
34076088	2019-03-10	Abdelaziz Bouteflika	Executive Office,Government,Far Left,(National) Major Party,Executive,Parties,Ideological,Elite	Algeria	Express intent to meet or negotiate	036	4	Algeria		Algeria	49098320	2	Al Jazeera English	Geneve		Canton de Geneve	Switzerland	46.2022	6.14569
34076089	2019-03-10	Algeria		Algeria	Express intent to meet or negotiate	036	4	Switzerland		Switzerland	49098320	3	Al Jazeera English	Geneve		Canton de Geneve	Switzerland	46.2022	6.14569
34076090	2019-03-10	Abdelaziz Bouteflika	Executive Office,Government,Far Left,(National) Major Party,Executive,Parties,Ideological,Elite	Algeria	Express intent to meet or negotiate	036	4	Switzerland		Switzerland	49098320	5	Al Jazeera English	Cointrin	Geneva	Canton de Geneve	Switzerland	46.2267	6.10552
34076096	2019-03-10	Citizen (Venezuela)	Social,General Population / Civilian / Social	Venezuela	Demonstrate or rally	141	-6.5	Nicolás Maduro	Elite,Far Left,Ideological,Parties,Executive Office,(National) Major Party,Executive,Government,Cabinet	Venezuela	49098321	4	Agence France-Presse	Caracas	Municipio Libertador	Distrito Capital	Venezuela	10.488	-66.8792
34076095	2019-03-10	John R. Bolton	Parties,(National) Major Party,Nongovernmental Organizations / Activists,Information / Communication / Transparency NGOs,Center Right,Ideological	United States	Make statement	010	0	Nicolás Maduro	Elite,Far Left,Ideological,Parties,Executive Office,(National) Major Party,Executive,Government,Cabinet	Venezuela	49098321	6	Agence France-Presse	Caracas	Municipio Libertador	Distrito Capital	Venezuela	10.488	-66.8792
34076153	2019-03-10	Russia		Russian Federation	Criticize or denounce	111	-2	United States		United States	49098340	1	Xinhua News Agency	Moscow		Moskva	Russian Federation	55.7522	37.6156
34076154	2019-03-10	Syria		Syria	Criticize or denounce	111	-2	United States		United States	49098340	1	Xinhua News Agency	Moscow		Moskva	Russian Federation	55.7522	37.6156
34076149	2019-03-10	United States		United States	Grant diplomatic recognition	054	6	Venezuela		Venezuela	49098342	4	Reuters News	Guri		Estado Bolivar	Venezuela	7.65	-62.8333
34076128	2019-03-10	Armed Band (Cameroon)	Unidentified Forces	Cameroon	Abduct, hijack, or take hostage	181	-9	Environment Department/Ministry (Cameroon)	Government,Executive,Environment Ministry	Cameroon	49098346	2	Yogam Communications SARL				Cameroon	3.86667	11.5167
34076110	2019-03-10	Attorney General (Canada)	Government,Judicial	Canada	Make statement	010	0	Justin Trudeau	Parties,(National) Major Party,Center Left,Ideological,Legislative / Parliamentary,Government,Executive Office,Executive	Canada	49098348	3	Associated Press Newswires	Toronto		Ontario	Canada	43.7001	-79.4163
34076111	2019-03-10	Justin Trudeau	Parties,(National) Major Party,Center Left,Ideological,Legislative / Parliamentary,Government,Executive Office,Executive	Canada	Make statement	010	0	Government (Canada)	Government	Canada	49098348	3	Associated Press Newswires	Toronto		Ontario	Canada	43.7001	-79.4163
34076112	2019-03-10	Attorney General (Canada)	Government,Judicial	Canada	Make statement	010	0	Government (Canada)	Government	Canada	49098348	3	Associated Press Newswires	Toronto		Ontario	Canada	43.7001	-79.4163
34076113	2019-03-10	Justin Trudeau	Parties,(National) Major Party,Center Left,Ideological,Legislative / Parliamentary,Government,Executive Office,Executive	Canada	Demand	100	-5	Citizen (Canada)	General Population / Civilian / Social,Social	Canada	49098348	4	Associated Press Newswires	Toronto		Ontario	Canada	43.7001	-79.4163
34076152	2019-03-10	Citizen (Algeria)	General Population / Civilian / Social,Social	Algeria	Demonstrate or rally	141	-6.5	Unspecified Actor	Unspecified		49098358	4	Agence France-Presse				Algeria	36.7525	3.04197
34076157	2019-03-10	Foreign Affairs (Iran)	Government,Foreign Ministry,Executive	Iran	Make empathetic comment	018	3.4	Ethiopia		Ethiopia	49098360	1	Xinhua News Agency	Tehran		Tehran Province	Iran	35.6944	51.4215
34076167	2019-03-10	Police (New Zealand)	Police,Government	New Zealand	Consult	040	1	The Herald	Government,Information / Communication / Transparency Ministry,State Media,Executive	South Africa	49098364	4	New Zealand Herald				New Zealand	-41.2833	174.767
34076168	2019-03-10	The Herald	Government,Information / Communication / Transparency Ministry,State Media,Executive	South Africa	Consult	040	1	Police (New Zealand)	Police,Government	New Zealand	49098364	4	New Zealand Herald				New Zealand	-41.2833	174.767
34076160	2019-03-10	Justice Department/Ministery (Canada)	Government,Judicial	Canada	Sign formal agreement	057	8	Attorney General (Canada)	Government,Judicial	Canada	49098385	4	Al Jazeera English	Quebec		Quebec	Canada	46.8123	-71.2145
34076161	2019-03-10	Attorney General (Canada)	Government,Judicial	Canada	Sign formal agreement	057	8	Justice Department/Ministery (Canada)	Government,Judicial	Canada	49098385	4	Al Jazeera English	Quebec		Quebec	Canada	46.8123	-71.2145
34076163	2019-03-10	Citizen (Thailand)	Social,General Population / Civilian / Social	Thailand	Demonstrate or rally	141	-6.5	Unspecified Actor	Unspecified		49098388	5	Agence France-Presse			Changwat Nakhon Ratchasima	Thailand	15	102.167
34076147	2019-03-10	Agence France-Presse	News,Social,Media	France	Make statement	010	0	Military (Nigeria)	Military,Government	Nigeria	49098391	2	Agence France-Presse			Rivers State	Nigeria	4.74974	6.82766
34076142	2019-03-10	Hassan Rouhani	Parties,(National) Major Party,Far Right,Elite,Ideological,Defense / Security Ministry,Government Religious,Executive Office,Government,Executive	Iran	Express intent to meet or negotiate	036	4	Iraq		Iraq	49098394	1	Xinhua News Agency	Tehran		Tehran Province	Iran	35.6944	51.4215
34076143	2019-03-10	Hassan Rouhani	Parties,(National) Major Party,Far Right,Elite,Ideological,Defense / Security Ministry,Government Religious,Executive Office,Government,Executive	Iran	Make a visit	042	1.9	Iraq		Iraq	49098394	3	Xinhua News Agency				Iraq	33.3406	44.4009
34076145	2019-03-10	Iraq		Iraq	Host a visit	043	2.8	Hassan Rouhani	Parties,(National) Major Party,Far Right,Elite,Ideological,Defense / Security Ministry,Government Religious,Executive Office,Government,Executive	Iran	49098394	3	Xinhua News Agency				Iraq	33.3406	44.4009
34076144	2019-03-10	Hassan Rouhani	Parties,(National) Major Party,Far Right,Elite,Ideological,Defense / Security Ministry,Government Religious,Executive Office,Government,Executive	Iran	Make a visit	042	1.9	Iraq		Iraq	49098394	4	Xinhua News Agency				Iraq	33.3406	44.4009
34076146	2019-03-10	Iraq		Iraq	Host a visit	043	2.8	Hassan Rouhani	Parties,(National) Major Party,Far Right,Elite,Ideological,Defense / Security Ministry,Government Religious,Executive Office,Government,Executive	Iran	49098394	4	Xinhua News Agency				Iraq	33.3406	44.4009
34076150	2019-03-10	Citizen (United Kingdom)	Social,General Population / Civilian / Social	United Kingdom	Criticize or denounce	111	-2	Government (United Kingdom)	Government	United Kingdom	49098397	2	The Scotsman				United Kingdom	51.5085	-0.12574
