Event ID	Event Date	Source Name	Source Sectors	Source Country	Event Text	CAMEO Code	Intensity	Target Name	Target Sectors	Target Country	Story ID	Sentence Number	Publisher	City	District	Province	Country	Latitude	Longitude
34078690	2019-03-06	Citizen (Israel)	Social,General Population / Civilian / Social	Israel	Refuse to yield	124	-4	City Mayor (Israel)	Government,Local,Municipal	Israel	49103710	3	The Jerusalem Post	Haifa		Haifa District	Israel	32.8184	34.9885
34078627	2019-03-06	Activist (Israel)	Nongovernmental Organizations / Activists,Human Rights NGOs,Nongovernmental Organization (International),Human Rights IGOs	Israel	Make an appeal or request	020	3	Israel		Israel	49103723	1	The Jerusalem Post				Israel	31.779	35.2253
34078628	2019-03-06	Police (Israel)	Government,Police	Israel	Arrest, detain, or charge with legal action	173	-5	Citizen (Israel)	Social,General Population / Civilian / Social	Israel	49103723	6	The Jerusalem Post	Jerusalem		Jerusalem District	Israel	31.769	35.2163
34078706	2019-03-06	Armenia		Armenia	Consider policy option	014	0	Israel		Israel	49103726	2	The Jerusalem Post	Jerusalem		Jerusalem District	Israel	31.769	35.2163
34078694	2019-03-06	United Nations	International Government Organization,Global Diplomatic IGOs,Global		Make statement	010	0	Michelle Bachelet	Ideological,Center Left,(National) Major Party,Parties,Elite	Chile	49103728	4	The Jerusalem Post	Geneve		Canton de Geneve	Switzerland	46.2022	6.14569
34078695	2019-03-06	Foreign Affairs (Israel)	Government,Foreign Ministry,Executive	Israel	Make statement	010	0	United Nations Human Rights Council	International Government Organization,Global Human Rights IGOs,Global,Global Diplomatic IGOs		49103728	5	The Jerusalem Post	Jerusalem		Jerusalem District	Israel	31.769	35.2163
34078717	2019-03-06	Citizen (Palestinian Territory, Occupied)	Social,General Population / Civilian / Social	Occupied Palestinian Territory	Criticize or denounce	111	-2	Israel		Israel	49103730	1	The Jerusalem Post	Golden Gate		West Bank	Occupied Palestinian Territory	31.7789	35.2369
34077637	2019-03-08	European Union	International Government Organization,Regional,Regional Diplomatic IGOs		Make statement	010	0	United Kingdom		United Kingdom	49101489	2	Reuters News			Britain	United Kingdom	53.5938	-1.86823
34078012	2019-03-09	Civic Group (Bangladesh)	Nongovernmental Organization (International),Nongovernmental Organizations / Activists	Bangladesh	Criticize or denounce	111	-2	Police (Bangladesh)	Police,Government	Bangladesh	49102440	2	United News of Bangladesh Limited	Tejgaon			Bangladesh	23.763	90.3897
34077959	2019-03-09	Police (India)	Government,Police	India	Arrest, detain, or charge with legal action	173	-5	Criminal (India)	Dissident,Criminals / Gangs	India	49102443	5	United News of Bangladesh Limited	Durgapur		State of West Bengal	India	25.5287	88.1506
34078017	2019-03-09	Other Authorities / Officials (India)	Government	India	Impose administrative sanctions	172	-5	Citizen (India)	General Population / Civilian / Social,Social	India	49102446	1	United News of Bangladesh Limited	Imam Sahib		Kunduz	Afghanistan	37.189	68.9364
34078018	2019-03-09	Other Authorities / Officials (India)	Government	India	Impose administrative sanctions	172	-5	Businessperson (India)	Social,Business	India	49102446	1	United News of Bangladesh Limited	Imam Sahib		Kunduz	Afghanistan	37.189	68.9364
34078015	2019-03-09	Businessperson (India)	Social,Business	India	Express intent to meet or negotiate	036	4	India		India	49102446	2	United News of Bangladesh Limited	Imam Sahib		Kunduz	Afghanistan	37.189	68.9364
34078016	2019-03-09	Businessperson (India)	Social,Business	India	Express intent to meet or negotiate	036	4	India		India	49102446	4	United News of Bangladesh Limited	Calcutta		State of West Bengal	India	22.5626	88.363
34078427	2019-03-09	Cyril Ramaphosa	Executive Office,(National) Major Party,Parties,Elite,Executive,Ideological,Government,Government Major Party (In Government),Consulting / Financial Services Business,Business,Social,Management / Budget / Planning / Organization Ministry,Far Left	South Africa	Make statement	010	0	Edna Bomo Edith Molewa	Government,Cabinet,(National) Major Party,Government Major Party (In Government),Parties,Agriculture / Fishing / Forestry Ministry,Far Left,Ideological,Executive	South Africa	49103323	6	Daily Dispatch				South Africa	-25.7449	28.1878
34079382	2019-03-09	Company - Owner or Operator (China)	Social,Business	China	Make optimistic comment	013	0.4	China		China	49105420	5	South China Morning Post	Beijing		Beijing Shi	China	39.9075	116.397
34077226	2019-03-10	Election Commission (India)	Elections Ministry,Government,Executive	India	Make statement	010	0	Lok Sabha	Government,Legislative / Parliamentary	India	49100695	1	Hindustan Times				India	28.6358	77.2244
34077227	2019-03-10	Head of Government (India)	Executive Office,Government,Executive	India	Accuse	112	-2	Citizen (India)	General Population / Civilian / Social,Social	India	49100695	3	Hindustan Times				India	28.6358	77.2244
34077244	2019-03-10	Police (India)	Government,Police	India	Arrest, detain, or charge with legal action	173	-5	Main Opposition (India)	Protestors / Popular Opposition / Mobs,Dissident	India	49100698	2	Hindustan Times			State of Uttar Pradesh	India	27.25	80.75
34077243	2019-03-10	Samajwadi Janata Party	Parties,(National) Major Party,Opposition Major Party (Out Of Government)	India	Accuse	112	-2	Bharatiya Janata	Parties,(National) Major Party,Opposition Major Party (Out Of Government)	India	49100698	6	Hindustan Times	Lucknow		State of Uttar Pradesh	India	26.8393	80.9231
34077182	2019-03-10	Hamas	Dissident,International Religious,Nongovernmental Organization (International),(National) Major Party,Parties,Muslim	Occupied Palestinian Territory	Criticize or denounce	111	-2	Muhammad Ishtayyah	Dissident,Parties,(National) Major Party,Center Left,Ideological	Occupied Palestinian Territory	49100749	1	Al Jazeera English				Occupied Palestinian Territory	31.9216	35.2033
34077181	2019-03-10	Mahmoud Abbas	Government,Executive Office,Executive,Elite	Occupied Palestinian Territory	Praise or endorse	051	3.4	Muhammad Ishtayyah	Dissident,Parties,(National) Major Party,Center Left,Ideological	Occupied Palestinian Territory	49100749	2	Al Jazeera English				Occupied Palestinian Territory	31.9216	35.2033
34077179	2019-03-10	Media Personnel (Palestinian Territory, Occupied)	Social,Media	Occupied Palestinian Territory	Make statement	010	0	Mahmoud Abbas	Government,Executive Office,Executive,Elite	Occupied Palestinian Territory	49100749	3	Al Jazeera English			Gaza Strip	Occupied Palestinian Territory	31.4167	34.3333
34077180	2019-03-10	Mahmoud Abbas	Government,Executive Office,Executive,Elite	Occupied Palestinian Territory	Host a visit	043	2.8	Muhammad Ishtayyah	Dissident,Parties,(National) Major Party,Center Left,Ideological	Occupied Palestinian Territory	49100749	3	Al Jazeera English			Gaza Strip	Occupied Palestinian Territory	31.4167	34.3333
34077183	2019-03-10	Muhammad Ishtayyah	Dissident,Parties,(National) Major Party,Center Left,Ideological	Occupied Palestinian Territory	Make a visit	042	1.9	Mahmoud Abbas	Government,Executive Office,Executive,Elite	Occupied Palestinian Territory	49100749	3	Al Jazeera English			Gaza Strip	Occupied Palestinian Territory	31.4167	34.3333
34077202	2019-03-10	United States		United States	Impose embargo, boycott, or sanctions	163	-8	Iran		Iran	49100750	2	Al Jazeera English	Tehran		Tehran Province	Iran	35.6944	51.4215
34077201	2019-03-10	Hassan Rouhani	Far Right,(National) Major Party,Parties,Executive Office,Executive,Defense / Security Ministry,Elite,Government Religious,Ideological,Government	Iran	Make a visit	042	1.9	Iraq		Iraq	49100750	4	Al Jazeera English	Baghdad		Muhafazat Baghdad	Iraq	33.3406	44.4009
34077203	2019-03-10	Iraq		Iraq	Host a visit	043	2.8	Hassan Rouhani	Far Right,(National) Major Party,Parties,Executive Office,Executive,Defense / Security Ministry,Elite,Government Religious,Ideological,Government	Iran	49100750	4	Al Jazeera English	Baghdad		Muhafazat Baghdad	Iraq	33.3406	44.4009
34077361	2019-03-10	Military (United Kingdom)	Government,Military	United Kingdom	fight with small arms and light weapons	193	-10	Citizen (United Kingdom)	Social,General Population / Civilian / Social	United Kingdom	49100847	3	The Scotsman	Derry	City of Derry	Northern Ireland	United Kingdom	54.9981	-7.30934
34077248	2019-03-10	Scotland		United Kingdom	Make statement	010	0	Police (United Kingdom)	Police,Government	United Kingdom	49100848	6	The Scotsman			Scotland	United Kingdom	56	-4
34077307	2019-03-10	Head of Government (Togo)	Executive,Government,Executive Office	Togo	Express intent to meet or negotiate	036	4	Sheikh Muhammad ibn Rashid al Maktum	Defense / Security Ministry,Local,Provincial,Government,Executive Office,Executive,Cabinet,Elite	United Arab Emirates	49100954	3	Savoir News	Dubai		Dubayy	United Arab Emirates	25.2582	55.3047
34077854	2019-03-10	Azerbaijan		Azerbaijan	Praise or endorse	051	3.4	Turan	Media,Social	Azerbaijan	49101901	1	Turan Information Agency (Azerbaijan)	Baku		Baku City	Azerbaijan	40.3777	49.892
34077852	2019-03-10	Ilham Aliyev	Nationalist,Elite,(National) Major Party,Executive Office,Parties,Government,Executive,Center Right,Ideological,Secular	Azerbaijan	Consult	040	1	Nikol Pashinyan	Elite,Executive,Government,Executive Office	Armenia	49101901	6	Turan Information Agency (Azerbaijan)	Baku		Baku City	Azerbaijan	40.3777	49.892
34077853	2019-03-10	Nikol Pashinyan	Elite,Executive,Government,Executive Office	Armenia	Consult	040	1	Ilham Aliyev	Nationalist,Elite,(National) Major Party,Executive Office,Parties,Government,Executive,Center Right,Ideological,Secular	Azerbaijan	49101901	6	Turan Information Agency (Azerbaijan)	Baku		Baku City	Azerbaijan	40.3777	49.892
34077987	2019-03-10	Police (Hungary)	Government,Police	Hungary	Arrest, detain, or charge with legal action	173	-5	Company - Owner or Operator (Hungary)	Business,Social	Hungary	49102418	1	United News of Bangladesh Limited	Sarvar		Vas megye	Hungary	47.2539	16.9352
34077974	2019-03-10	Abdul Hamid	Parties,Government Major Party (In Government),(National) Major Party,Government,Executive Office,Executive,Elite	Bangladesh	Make an appeal or request	020	3	Citizen (Bangladesh)	General Population / Civilian / Social,Social	Bangladesh	49102423	1	United News of Bangladesh Limited				Bangladesh	23.7104	90.4074
34077973	2019-03-10	Abdul Hamid	Parties,Government Major Party (In Government),(National) Major Party,Government,Executive Office,Executive,Elite	Bangladesh	Make optimistic comment	013	0.4	Citizen (Bangladesh)	General Population / Civilian / Social,Social	Bangladesh	49102423	6	United News of Bangladesh Limited				Bangladesh	23.7104	90.4074
34078085	2019-03-10	Rapid Action Battalion	Police,Government	Bangladesh	Arrest, detain, or charge with legal action	173	-5	Company - Owner or Operator (India)	Social,Business	India	49102426	1	United News of Bangladesh Limited	Durgapur		Dhaka Division	Bangladesh	25.1253	90.6776
34078086	2019-03-10	Police (India)	Government,Police	India	Arrest, detain, or charge with legal action	173	-5	Citizen (India)	General Population / Civilian / Social,Social	India	49102426	4	United News of Bangladesh Limited	Sharsha			Bangladesh	23.06	88.93
34077960	2019-03-10	Head of Government (Bangladesh)	Executive Office,Executive,Government	Bangladesh	Make statement	010	0	Bangladesh		Bangladesh	49102431	1	United News of Bangladesh Limited				Bangladesh	23.7104	90.4074
34077961	2019-03-10	Head of Government (Bangladesh)	Executive Office,Executive,Government	Bangladesh	Make statement	010	0	Bangladesh		Bangladesh	49102431	4	United News of Bangladesh Limited				Bangladesh	23.7104	90.4074
34077990	2019-03-10	Mirza Fakhrul Islam Alamgir	Parties,Opposition Major Party (Out Of Government),(National) Major Party,Social,Media	Bangladesh	Make optimistic comment	013	0.4	Labor Union (Bangladesh)	Social,Labor	Bangladesh	49102434	1	United News of Bangladesh Limited	Dhaka	Dhaka District	Dhaka Division	Bangladesh	23.7104	90.4074
34079378	2019-03-10	Fuad Khan	Executive,Government,Health Ministry,Legislative / Parliamentary	Trinidad and Tobago	Make an appeal or request	020	3	Citizen (Trinidad and Tobago)	Social,General Population / Civilian / Social	Trinidad and Tobago	49105396	1	Unknown				Trinidad and Tobago	10.6662	-61.5166
34079388	2019-03-10	People Associated with the Opposition (Guyana)	Protestors / Popular Opposition / Mobs,Dissident	Guyana	Consult	040	1	Head of Government (Guyana)	Government,Executive Office,Executive	Guyana	49105410	1	Unknown				Guyana	6.80448	-58.1553
34079389	2019-03-10	Guyana Elections Commission	Government,Elections Ministry,Executive	Guyana	Consult	040	1	Head of Government (Guyana)	Government,Executive Office,Executive	Guyana	49105410	1	Unknown				Guyana	6.80448	-58.1553
34079390	2019-03-10	Head of Government (Guyana)	Government,Executive Office,Executive	Guyana	Consult	040	1	People Associated with the Opposition (Guyana)	Protestors / Popular Opposition / Mobs,Dissident	Guyana	49105410	1	Unknown				Guyana	6.80448	-58.1553
34079391	2019-03-10	Guyana Elections Commission	Government,Elections Ministry,Executive	Guyana	Consult	040	1	People Associated with the Opposition (Guyana)	Protestors / Popular Opposition / Mobs,Dissident	Guyana	49105410	1	Unknown				Guyana	6.80448	-58.1553
34079392	2019-03-10	Head of Government (Guyana)	Government,Executive Office,Executive	Guyana	Consult	040	1	Guyana Elections Commission	Government,Elections Ministry,Executive	Guyana	49105410	1	Unknown				Guyana	6.80448	-58.1553
34079393	2019-03-10	People Associated with the Opposition (Guyana)	Protestors / Popular Opposition / Mobs,Dissident	Guyana	Consult	040	1	Guyana Elections Commission	Government,Elections Ministry,Executive	Guyana	49105410	1	Unknown				Guyana	6.80448	-58.1553
34079453	2019-03-10	Opposition Force (Malaysia)	Dissident,Rebel	Malaysia	Demonstrate or rally	141	-6.5	Unspecified Actor	Unspecified		49105417	1	South China Morning Post				Malaysia	3.14309	101.687
34079401	2019-03-10	Company - Owner or Operator (China)	Social,Business	China	Engage in diplomatic cooperation	050	3.5	Other Authorities / Officials (China)	Government	China	49105418	5	South China Morning Post			Michigan	United States	44.2503	-85.5003
34077145	2019-03-11	Chun Doo Hwan	Elite	South Korea	Make a visit	042	1.9	South Korea		South Korea	49100413	2	Yonhap English News	Seoul		Seoul-teukbyeolsi	South Korea	37.5683	126.978
34077146	2019-03-11	South Korea		South Korea	Host a visit	043	2.8	Chun Doo Hwan	Elite	South Korea	49100413	2	Yonhap English News	Seoul		Seoul-teukbyeolsi	South Korea	37.5683	126.978
34077097	2019-03-11	National Broadcasting Commission	Executive,Government,State Media,Information / Communication / Transparency Ministry	Nigeria	Make statement	010	0	Healthcare Facility (United States)	Social,Medical / Health	United States	49100414	4	Xinhua News Agency		Westchester County	state of New York	United States	41.1515	-73.7534
34077143	2019-03-11	Defense / Security Ministry (Thailand)	Executive,Defense / Security Ministry,Government	Thailand	Express intent to meet or negotiate	036	4	Police (Thailand)	Government,Police	Thailand	49100415	2	Organisation of Asia-Pacific News Agencies	Phatthalung		Changwat Phatthalung	Thailand	7.61786	100.078
34077111	2019-03-11	Ministry (Ireland)	Government	Ireland	Accuse	112	-2	Business (Ireland)	Social,Business	Ireland	49100423	6	Agence France-Presse	Cheltenham	Gloucestershire	England	United Kingdom	51.9	-2.08333
34077112	2019-03-11	Kim Jong-Un	Executive,Executive Office,Elite,Government Major Party (In Government),Parties,Government,(National) Major Party	North Korea	Engage in negotiation	046	7	Donald Trump	Executive Office,Government,Executive	United States	49100425	6	Yonhap English News	Hanoi		Thanh Pho Ha Noi	Vietnam	21.0245	105.841
34077113	2019-03-11	Donald Trump	Executive Office,Government,Executive	United States	Engage in negotiation	046	7	Kim Jong-Un	Executive,Executive Office,Elite,Government Major Party (In Government),Parties,Government,(National) Major Party	North Korea	49100425	6	Yonhap English News	Hanoi		Thanh Pho Ha Noi	Vietnam	21.0245	105.841
34077156	2019-03-11	Jorge Rodríguez	Local,(National) Major Party,Parties,Government,Far Left,Municipal,Ideological	Venezuela	Make an appeal or request	020	3	Citizen (Venezuela)	Social,General Population / Civilian / Social	Venezuela	49100427	5	Xinhua News Agency	Caracas	Municipio Libertador	Distrito Capital	Venezuela	10.488	-66.8792
34077155	2019-03-11	Jorge Rodríguez	Local,(National) Major Party,Parties,Government,Far Left,Municipal,Ideological	Venezuela	Make statement	010	0	Government (United States)	Government	United States	49100427	6	Xinhua News Agency	Caracas	Municipio Libertador	Distrito Capital	Venezuela	10.488	-66.8792
34077151	2019-03-11	Criminal (Japan)	Criminals / Gangs,Dissident	Japan	Use unconventional violence	180	-9	Men (Japan)	Social,General Population / Civilian / Social	Japan	49100432	3	Kyodo News	Minami		Shimane-ken	Japan	36.0734	133.099
34077152	2019-03-11	Criminal (Japan)	Criminals / Gangs,Dissident	Japan	fight with small arms and light weapons	193	-10	Employee (Japan)	Labor,Social	Japan	49100432	6	Kyodo News	Minami		Shimane-ken	Japan	36.0734	133.099
34077135	2019-03-11	Foreign Affairs (Indonesia)	Government,Executive,Foreign Ministry	Indonesia	Praise or endorse	051	3.4	Government (Malaysia)	Government	Malaysia	49100433	6	Indo-Asian News Service	Jakarta		Daerah Khusus Ibukota Jakarta	Indonesia	-6.21462	106.845
34077093	2019-03-11	Donald Trump	Executive Office,Government,Executive	United States	Rally support on behalf of	053	3.8	Russia		Russian Federation	49100437	1	Associated Press Newswires			Washington D.C.	United States	38.9171	-77.0003
34077094	2019-03-11	Donald Trump	Executive Office,Government,Executive	United States	Criticize or denounce	111	-2	Russia		Russian Federation	49100437	1	Associated Press Newswires			Washington D.C.	United States	38.9171	-77.0003
34077089	2019-03-11	Citizen (South Korea)	General Population / Civilian / Social,Social	South Korea	Bring lawsuit against	115	-2	Chun Doo Hwan	Elite	South Korea	49100448	3	Yonhap English News	Gwangju		Gwangju	South Korea	35.1547	126.916
34077105	2019-03-11	Malaysia		Malaysia	Return, release person(s)	0841	7	Women (Indonesia)	Social,General Population / Civilian / Social	Indonesia	49100449	1	Xinhua News Agency	Shah Alam		Selangor	Malaysia	3.08507	101.533
34077153	2019-03-11	Malaysia		Malaysia	Return, release person(s)	0841	7	Women (Indonesia)	Social,General Population / Civilian / Social	Indonesia	49100450	1	Xinhua News Agency	Shah Alam		Selangor	Malaysia	3.08507	101.533
34077149	2019-03-11	Malaysia		Malaysia	Ease administrative sanctions	081	5	Women (Indonesia)	Social,General Population / Civilian / Social	Indonesia	49100451	2	Reuters News	Kuala Lumpur		Kuala Lumpur	Malaysia	3.1412	101.687
34077098	2019-03-11	Police (India)	Government,Police	India	Make statement	010	0	Criminal (India)	Dissident,Criminals / Gangs	India	49100456	4	Hindustan Times	Greater Noida	Meerut	State of Uttar Pradesh	India	28.4961	77.536
34077132	2019-03-11	Activist (Ukraine)	Nongovernmental Organizations / Activists,Nongovernmental Organization (International),Human Rights NGOs,Human Rights IGOs	Ukraine	Demonstrate or rally	141	-6.5	Unspecified Actor	Unspecified		49100500	2	Irish Times	Kiev		Misto Kyyiv	Ukraine	50.4547	30.5238
34077134	2019-03-11	Police (Ukraine)	Government,Police	Ukraine	Increase police alert status	151	-7.2	Ukraine		Ukraine	49100500	2	Irish Times	Kiev		Misto Kyyiv	Ukraine	50.4547	30.5238
34077133	2019-03-11	Protester (Ukraine)	Dissident,Protestors / Popular Opposition / Mobs	Ukraine	Obstruct passage, block	144	-7.5	Petro Poroshenko	Social,Consumer Goods Business,Executive,Finance / Economy / Commerce / Trade Ministry,Government,Executive Office,Business	Ukraine	49100500	4	Irish Times	Cherkasy		Cherkas'ka Oblast'	Ukraine	49.4285	32.0621
34077127	2019-03-11	Christian Democratic Party (Germany)	International Religious,Christian,Parties	Germany	Express accord	019	3.4	Emmanuel Macron	Executive,Government,Executive Office,Elite	Andorra	49100503	2	Irish Times	Brussels	(Bruxelles-Capitale)	Bruxelles-Capitale	Belgium	50.8504	4.34878
34077107	2019-03-11	Citizen (Russia)	Social,General Population / Civilian / Social	Russian Federation	Demonstrate or rally	141	-6.5	Unspecified Actor	Unspecified		49100505	1	Irish Times	Moscow		Moskva	Russian Federation	55.7522	37.6156
34077108	2019-03-11	Protester (Russia)	Protestors / Popular Opposition / Mobs,Dissident	Russian Federation	Demonstrate or rally	141	-6.5	Unspecified Actor	Unspecified		49100505	5	Irish Times	Moscow		Moskva	Russian Federation	55.7522	37.6156
34077120	2019-03-11	Theresa May	Government,Executive Office,Parties,(National) Major Party,Executive,Elite,Center Right,Ideological	United Kingdom	Express intent to meet or negotiate	036	4	Belgium		Belgium	49100509	1	Irish Times	Brussels	(Bruxelles-Capitale)	Bruxelles-Capitale	Belgium	50.8504	4.34878
34077121	2019-03-11	Charles Flanagan	Foreign Ministry,Executive,Parties,(National) Major Party,Government,Center Right,Ideological	Ireland	Make statement	010	0	Ireland		Ireland	49100519	6	Irish Times				Ireland	53.344	-6.26719
34077090	2019-03-11	Boeing	Business,Science / Tech / Knowledge / Innovation Business,Social	United States	Make a visit	042	1.9	Kenya		Kenya	49100520	2	Irish Times	Nairobi		Nairobi Province	Kenya	-1.28333	36.8167
34077091	2019-03-11	Kenya		Kenya	Host a visit	043	2.8	Boeing	Business,Science / Tech / Knowledge / Innovation Business,Social	United States	49100520	2	Irish Times	Nairobi		Nairobi Province	Kenya	-1.28333	36.8167
34077106	2019-03-11	Head of Government (France)	Government,Executive,Executive Office	France	Reject proposal to meet, discuss, or negotiate	125	-5	Citizen (Djibouti)	Social,General Population / Civilian / Social	Djibouti	49100532	2	Le Figaro	Djibouti		Djibouti Region	Djibouti	11.589	43.145
34077228	2019-03-11	Moon Jae-in	Government,Executive,Executive Office	South Korea	Make a visit	042	1.9	Southeast Asia			49100593	1	Yonhap English News	Seoul		Seoul-teukbyeolsi	South Korea	37.5683	126.978
34077229	2019-03-11	Southeast Asia			Host a visit	043	2.8	Moon Jae-in	Government,Executive,Executive Office	South Korea	49100593	1	Yonhap English News	Seoul		Seoul-teukbyeolsi	South Korea	37.5683	126.978
34077241	2019-03-11	Hassan Rouhani	Far Right,(National) Major Party,Parties,Executive Office,Executive,Defense / Security Ministry,Elite,Government Religious,Ideological,Government	Iran	Make a visit	042	1.9	Iraq		Iraq	49100596	1	Reuters News	Baghdad		Muhafazat Baghdad	Iraq	33.3406	44.4009
34077242	2019-03-11	Iraq		Iraq	Host a visit	043	2.8	Hassan Rouhani	Far Right,(National) Major Party,Parties,Executive Office,Executive,Defense / Security Ministry,Elite,Government Religious,Ideological,Government	Iran	49100596	1	Reuters News	Baghdad		Muhafazat Baghdad	Iraq	33.3406	44.4009
34077191	2019-03-11	South Korea		South Korea	Express intent to engage in diplomatic cooperation (such as policy support)	032	4.5	Brunei		Brunei	49100610	2	Yonhap English News	Bandar Seri Begawan		Brunei and Muara District	Brunei	4.94029	114.948
34077192	2019-03-11	Brunei		Brunei	Express intent to engage in diplomatic cooperation (such as policy support)	032	4.5	South Korea		South Korea	49100610	2	Yonhap English News	Bandar Seri Begawan		Brunei and Muara District	Brunei	4.94029	114.948
34077193	2019-03-11	South Korea		South Korea	Make a visit	042	1.9	Brunei		Brunei	49100610	5	Yonhap English News	Bandar Seri Begawan		Brunei and Muara District	Brunei	4.94029	114.948
34077194	2019-03-11	Brunei		Brunei	Host a visit	043	2.8	South Korea		South Korea	49100610	5	Yonhap English News	Bandar Seri Begawan		Brunei and Muara District	Brunei	4.94029	114.948
34077197	2019-03-11	African National Congress	(National) Major Party,Parties,Far Left,Ideological,Government Major Party (In Government)	South Africa	Threaten with repression	137	-7	Illegal Immigrant (South Africa)	Dissident,Criminals / Gangs	South Africa	49100614	1	Cape Argus				South Africa	-25.7449	28.1878
34077221	2019-03-11	Student (Egypt)	Social,Education	Egypt	Make an appeal or request	020	3	Court Judge (Egypt)	Government,Judicial	Egypt	49100615	1	Cape Argus				Egypt	30.0626	31.2497
34077222	2019-03-11	Student (Egypt)	Social,Education	Egypt	Assassinate	186	-10	Government Official (Egypt)	Government	Egypt	49100615	4	Cape Argus				Egypt	30.0626	31.2497
34077232	2019-03-11	Military Personnel - Special (India)	Government,Military	India	fight with small arms and light weapons	193	-10	Citizen (India)	General Population / Civilian / Social,Social	India	49100620	3	Indo-Asian News Service	Jammu		State of Jammu and Kashmir	India	32.7357	74.8691
34077233	2019-03-11	Citizen (India)	General Population / Civilian / Social,Social	India	fight with small arms and light weapons	193	-10	Military Personnel - Special (India)	Government,Military	India	49100620	3	Indo-Asian News Service	Jammu		State of Jammu and Kashmir	India	32.7357	74.8691
34077235	2019-03-11	South Korea		South Korea	Express intent to engage in diplomatic cooperation (such as policy support)	032	4.5	Brunei		Brunei	49100626	2	Yonhap English News	Bandar Seri Begawan		Brunei and Muara District	Brunei	4.94029	114.948
34077236	2019-03-11	Brunei		Brunei	Express intent to engage in diplomatic cooperation (such as policy support)	032	4.5	South Korea		South Korea	49100626	2	Yonhap English News	Bandar Seri Begawan		Brunei and Muara District	Brunei	4.94029	114.948
34077237	2019-03-11	South Korea		South Korea	Make a visit	042	1.9	Brunei		Brunei	49100626	5	Yonhap English News	Bandar Seri Begawan		Brunei and Muara District	Brunei	4.94029	114.948
34077238	2019-03-11	Brunei		Brunei	Host a visit	043	2.8	South Korea		South Korea	49100626	5	Yonhap English News	Bandar Seri Begawan		Brunei and Muara District	Brunei	4.94029	114.948
34077186	2019-03-11	Jacinda Ardern	Executive Office,Government,Executive,Parties,(National) Major Party,Elite,Center Left,Ideological,Legislative / Parliamentary,Unicameral	New Zealand	Make statement	010	0	Government Delegation (China)	Government	China	49100628	2	Xinhua News Agency	Wellington	Wellington City	Wellington	New Zealand	-41.2866	174.776
34077214	2019-03-11	Refugee (Somalia)	Refugees / Displaced,Social	Somalia	Make a visit	042	1.9	United States		United States	49100631	2	The Washington Post			Minnesota	United States	46.2502	-94.2505
34077216	2019-03-11	United States		United States	Provide humanitarian aid	073	7.4	Somalia		Somalia	49100631	2	The Washington Post			Minnesota	United States	46.2502	-94.2505
34077217	2019-03-11	United States		United States	Host a visit	043	2.8	Refugee (Somalia)	Refugees / Displaced,Social	Somalia	49100631	2	The Washington Post			Minnesota	United States	46.2502	-94.2505
34077215	2019-03-11	Immigrants (Somalia)	General Population / Civilian / Social,Social	Somalia	Make a visit	042	1.9	United States		United States	49100631	4	The Washington Post			Minnesota	United States	46.2502	-94.2505
34077218	2019-03-11	United States		United States	Host a visit	043	2.8	Immigrants (Somalia)	General Population / Civilian / Social,Social	Somalia	49100631	4	The Washington Post			Minnesota	United States	46.2502	-94.2505
34077219	2019-03-11	Combatant (Syria)	Unidentified Forces	Syria	Use unconventional violence	180	-9	Syria		Syria	49100652	1	The Washington Post				Syria	36.5167	40.9
34077220	2019-03-11	Combatant (Syria)	Unidentified Forces	Syria	Use unconventional violence	180	-9	Islamic State of Iraq and the Levant	Fundamentalist,Sunni,International Religious,Ideological,Dissident,Insurgents,Muslim	Iraq	49100652	1	The Washington Post				Syria	36.5167	40.9
34077239	2019-03-11	Police (Philippines)	Police,Government	Philippines	Arrest, detain, or charge with legal action	173	-5	Murderer (Philippines)	Dissident,Criminals / Gangs	Philippines	49100657	1	PNA (Philippines News Agency)	Midsayap	Province of North Cotabato	Soccsksargen	Philippines	7.19083	124.53
34077240	2019-03-11	Military (Philippines)	Military,Government	Philippines	Arrest, detain, or charge with legal action	173	-5	Murderer (Philippines)	Dissident,Criminals / Gangs	Philippines	49100657	1	PNA (Philippines News Agency)	Midsayap	Province of North Cotabato	Soccsksargen	Philippines	7.19083	124.53
34077234	2019-03-11	Party Member (South Africa)	Parties	South Africa	Make statement	010	0	Government (South Africa)	Government	South Africa	49100659	4	Cape Argus			Province of KwaZulu-Natal	South Africa	-29	30
34077196	2019-03-11	Political Parties (South Africa)	Parties	South Africa	Threaten	130	-4.4	Citizen (South Africa)	General Population / Civilian / Social,Social	South Africa	49100663	2	Cape Argus	Soweto	City of Johannesburg Metropolitan Municipality	Gauteng	South Africa	-26.2678	27.8585
34077173	2019-03-11	Mangosuthu Buthelezi	Parties,International Ethnic,Center Left,International Religious,Ideological,Catholic,(National) Minor Party,Other Sub-Saharan African	South Africa	Make an appeal or request	020	3	Political Parties (India)	Parties	India	49100686	1	The Mercury				South Africa	-25.7449	28.1878
34077198	2019-03-11	Amarinder Singh	Government,Legislative / Parliamentary,Local,Provincial	India	Express intent to cooperate	030	4	Manmohan Singh	Government,Parties,(National) Major Party,Executive,Opposition Major Party (Out Of Government),Elite,Finance / Economy / Commerce / Trade Ministry	India	49100691	5	Hindustan Times	Amritsar		State of Punjab	India	31.6366	74.8748
34077200	2019-03-11	Party Member (South Africa)	Parties	South Africa	Make statement	010	0	Government (South Africa)	Government	South Africa	49100705	4	Daily News			Province of KwaZulu-Natal	South Africa	-29	30
34077187	2019-03-11	Media Personnel (South Africa)	Media,Social	South Africa	Make statement	010	0	Police (South Africa)	Government,Police	South Africa	49100708	2	Daily News	Pietermaritzburg	uMgungundlovu District Municipality	Province of KwaZulu-Natal	South Africa	-29.6168	30.3928
34077188	2019-03-11	Media Personnel (South Africa)	Media,Social	South Africa	Make statement	010	0	Police (South Africa)	Government,Police	South Africa	49100708	6	Daily News	Pietermaritzburg	uMgungundlovu District Municipality	Province of KwaZulu-Natal	South Africa	-29.6168	30.3928
34077205	2019-03-11	Ministry (South Africa)	Government	South Africa	Make statement	010	0	Police (South Africa)	Government,Police	South Africa	49100712	3	Daily News	Soshanguve	City of Tshwane Metropolitan Municipality	Gauteng	South Africa	-25.4729	28.0992
34077204	2019-03-11	African National Congress	(National) Major Party,Parties,Far Left,Ideological,Government Major Party (In Government)	South Africa	Threaten with repression	137	-7	Illegal Immigrant (South Africa)	Dissident,Criminals / Gangs	South Africa	49100713	1	Daily News				South Africa	-25.7449	28.1878
34077199	2019-03-11	Political Parties (South Africa)	Parties	South Africa	Threaten	130	-4.4	Citizen (South Africa)	General Population / Civilian / Social,Social	South Africa	49100714	2	Daily News	Soweto	City of Johannesburg Metropolitan Municipality	Gauteng	South Africa	-26.2678	27.8585
34077176	2019-03-11	Sajid Javid	Interior / Home Ministry,Cabinet,Executive,Government	United Kingdom	Coerce	170	-7	Citizen (United Kingdom)	Social,General Population / Civilian / Social	United Kingdom	49100716	3	Cape Times			Britain	United Kingdom	53.5938	-1.86823
34077185	2019-03-11	Media Personnel (Spain)	Social,Media	Spain	Make statement	010	0	Police (Spain)	Government,Police	Spain	49100720	5	Cape Times	Durbanville	City of Cape Town	Province of the Western Cape	South Africa	-33.8416	18.6518
34077184	2019-03-11	Rights Activist (South Africa)	Nongovernmental Organization (International),Human Rights IGOs,Nongovernmental Organizations / Activists,Human Rights NGOs	South Africa	Conduct strike or boycott	143	-6.5	Unspecified Actor	Unspecified		49100726	1	Cape Times				South Africa	-25.7449	28.1878
34077245	2019-03-11	Mangosuthu Buthelezi	Parties,International Ethnic,Center Left,International Religious,Ideological,Catholic,(National) Minor Party,Other Sub-Saharan African	South Africa	Make an appeal or request	020	3	Political Parties (India)	Parties	India	49100728	1	Cape Times				South Africa	-25.7449	28.1878
34077223	2019-03-11	Women (Vietnam)	General Population / Civilian / Social,Social	Vietnam	Use unconventional violence	180	-9	Kim Jong-Nam	Government Major Party (In Government),(National) Major Party,Parties,Government,Legislative / Parliamentary,Elite	North Korea	49100735	1	Straits Times	Shah Alam		Selangor	Malaysia	3.08507	101.533
34077206	2019-03-11	Heiko Maas	Foreign Ministry,Government,Judicial,Executive	Germany	Make a visit	042	1.9	Afghanistan		Afghanistan	49100738	1	Deutsche Welle				Afghanistan	34.4961	69.1055
34077208	2019-03-11	Afghanistan		Afghanistan	Host a visit	043	2.8	Heiko Maas	Foreign Ministry,Government,Judicial,Executive	Germany	49100738	1	Deutsche Welle				Afghanistan	34.4961	69.1055
34077207	2019-03-11	Heiko Maas	Foreign Ministry,Government,Judicial,Executive	Germany	Make a visit	042	1.9	Afghanistan		Afghanistan	49100738	3	Deutsche Welle				Afghanistan	36.8333	65.8333
34077209	2019-03-11	Afghanistan		Afghanistan	Host a visit	043	2.8	Heiko Maas	Foreign Ministry,Government,Judicial,Executive	Germany	49100738	3	Deutsche Welle				Afghanistan	36.8333	65.8333
34077174	2019-03-11	Military (Syria)	Government,Military	Syria	Use conventional military force	190	-10	Islamic State of Iraq and the Levant	Fundamentalist,Sunni,International Religious,Ideological,Dissident,Insurgents,Muslim	Iraq	49100743	2	Al Jazeera English				Syria	36.5167	40.9
34077175	2019-03-11	Military (Syria)	Government,Military	Syria	Use conventional military force	190	-10	Syria		Syria	49100743	2	Al Jazeera English				Syria	36.5167	40.9
34077177	2019-03-11	Abdelaziz Bouteflika	Far Left,Executive,Government,Executive Office,Ideological,Elite,(National) Major Party,Parties	Algeria	Make a visit	042	1.9	Algeria		Algeria	49100745	2	Al Jazeera English	Algiers		Wilaya d' Alger	Algeria	36.7525	3.04197
34077178	2019-03-11	Algeria		Algeria	Host a visit	043	2.8	Abdelaziz Bouteflika	Far Left,Executive,Government,Executive Office,Ideological,Elite,(National) Major Party,Parties	Algeria	49100745	2	Al Jazeera English	Algiers		Wilaya d' Alger	Algeria	36.7525	3.04197
34077162	2019-03-11	Gladys Berejiklian	Government	Australia	Make statement	010	0	Government (Australia)	Government	Australia	49100754	2	AAP Bulletins	Moore Park		State of Queensland	Australia	-24.7155	152.276
34077297	2019-03-11	Malaysia		Malaysia	Express intent to ease administrative sanctions	0351	7	Criminal (Indonesia)	Criminals / Gangs,Dissident	Indonesia	49100844	1	Straits Times	Kuala Lumpur		Kuala Lumpur	Malaysia	3.1412	101.687
34077326	2019-03-11	Media (Iraq)	Social,Media	Iraq	Make statement	010	0	Hassan Rouhani	Government,Elite,Government Religious,(National) Major Party,Parties,Ideological,Executive,Executive Office,Far Right,Defense / Security Ministry	Iran	49100873	1	Associated Press Newswires	Tehran		Tehran Province	Iran	35.6944	51.4215
34077329	2019-03-11	Hassan Rouhani	Government,Elite,Government Religious,(National) Major Party,Parties,Ideological,Executive,Executive Office,Far Right,Defense / Security Ministry	Iran	Make a visit	042	1.9	Iraq		Iraq	49100873	1	Associated Press Newswires	Baghdad		Muhafazat Baghdad	Iraq	33.3406	44.4009
34077331	2019-03-11	Iran		Iran	Praise or endorse	051	3.4	Iraq		Iraq	49100873	1	Associated Press Newswires	Tehran		Tehran Province	Iran	35.6944	51.4215
34077332	2019-03-11	Iraq		Iraq	Host a visit	043	2.8	Hassan Rouhani	Government,Elite,Government Religious,(National) Major Party,Parties,Ideological,Executive,Executive Office,Far Right,Defense / Security Ministry	Iran	49100873	1	Associated Press Newswires	Baghdad		Muhafazat Baghdad	Iraq	33.3406	44.4009
34077330	2019-03-11	Hassan Rouhani	Government,Elite,Government Religious,(National) Major Party,Parties,Ideological,Executive,Executive Office,Far Right,Defense / Security Ministry	Iran	Make a visit	042	1.9	Iraq		Iraq	49100873	2	Associated Press Newswires	Baghdad		Muhafazat Baghdad	Iraq	33.3406	44.4009
34077333	2019-03-11	Iraq		Iraq	Host a visit	043	2.8	Hassan Rouhani	Government,Elite,Government Religious,(National) Major Party,Parties,Ideological,Executive,Executive Office,Far Right,Defense / Security Ministry	Iran	49100873	2	Associated Press Newswires	Baghdad		Muhafazat Baghdad	Iraq	33.3406	44.4009
34077328	2019-03-11	Hassan Rouhani	Government,Elite,Government Religious,(National) Major Party,Parties,Ideological,Executive,Executive Office,Far Right,Defense / Security Ministry	Iran	Express intent to meet or negotiate	036	4	Barham Salih	Government,Nationalist,Local,Provincial,International Religious,Center Left,Sunni,Ideological,Provincial Party,(National) Minor Party,Parties,International Ethnic,Kurd (Ethnic Group)	Iraq	49100873	3	Associated Press Newswires	Baghdad		Muhafazat Baghdad	Iraq	33.3406	44.4009
34077327	2019-03-11	Iraq		Iraq	Express intent to engage in diplomatic cooperation (such as policy support)	032	4.5	Iran		Iran	49100873	5	Associated Press Newswires	Tehran		Tehran Province	Iran	35.6944	51.4215
34077285	2019-03-11	Government Official (Afghanistan)	Government	Afghanistan	Accuse	112	-2	Militant (Taliban)	Fundamentalist,Dissident,Insurgents,International Religious,Sunni,Ideological	Afghanistan	49100874	4	Xinhua News Agency	Maymana		Faryab Province	Afghanistan	35.9214	64.7836
34077259	2019-03-11	Inara Murniece	Legislative / Parliamentary,Government,Unicameral	Latvia	Make a visit	042	1.9	Sweden		Sweden	49100875	1	Latvian News Agency				Sweden	59.3326	18.0649
34077260	2019-03-11	Sweden		Sweden	Host a visit	043	2.8	Inara Murniece	Legislative / Parliamentary,Government,Unicameral	Latvia	49100875	1	Latvian News Agency				Sweden	59.3326	18.0649
34077253	2019-03-11	Inara Murniece	Legislative / Parliamentary,Government,Unicameral	Latvia	Express intent to meet or negotiate	036	4	Legislature (Sweden)	Government,Legislative / Parliamentary	Sweden	49100875	2	Latvian News Agency	Riga		Riga	Latvia	56.946	24.1059
34077254	2019-03-11	Inara Murniece	Legislative / Parliamentary,Government,Unicameral	Latvia	Express intent to meet or negotiate	036	4	Parliament of Sweden	Unicameral,Government,Legislative / Parliamentary	Sweden	49100875	2	Latvian News Agency	Riga		Riga	Latvia	56.946	24.1059
34077255	2019-03-11	Member of Legislative (Govt) (Latvia)	Legislative / Parliamentary,Government	Latvia	Express intent to meet or negotiate	036	4	Head of Government (Sweden)	Executive Office,Government,Executive	Sweden	49100875	4	Latvian News Agency	Stockholm	Stockholms Kommun	Stockholm	Sweden	59.3326	18.0649
34077256	2019-03-11	Member of Legislative (Govt) (Latvia)	Legislative / Parliamentary,Government	Latvia	Express intent to meet or negotiate	036	4	Margot Wallström	Foreign Ministry,Government,Executive	Sweden	49100875	4	Latvian News Agency	Stockholm	Stockholms Kommun	Stockholm	Sweden	59.3326	18.0649
34077257	2019-03-11	Member of Legislative (Govt) (Latvia)	Legislative / Parliamentary,Government	Latvia	Express intent to meet or negotiate	036	4	Peter Hultqvist	Defense / Security Ministry,Government,Executive	Sweden	49100875	4	Latvian News Agency	Stockholm	Stockholms Kommun	Stockholm	Sweden	59.3326	18.0649
34077258	2019-03-11	Saeima	Legislative / Parliamentary,Government,Unicameral	Latvia	Express intent to meet or negotiate	036	4	Indigenous People (Sweden)	Social,General Population / Civilian / Social	Sweden	49100875	6	Latvian News Agency	Stockholm	Stockholms Kommun	Stockholm	Sweden	59.3326	18.0649
34077318	2019-03-11	Justice Department/Ministery (Indonesia)	Judicial,Government	Indonesia	Make an appeal or request	020	3	Malaysia		Malaysia	49100878	1	Reuters News				Indonesia	-6.21462	106.845
34077347	2019-03-11	South Korea		South Korea	Consult	040	1	Australia		Australia	49100880	1	The Korea Herald	Seoul		Seoul-teukbyeolsi	South Korea	37.5683	126.978
34077348	2019-03-11	Australia		Australia	Consult	040	1	South Korea		South Korea	49100880	1	The Korea Herald	Seoul		Seoul-teukbyeolsi	South Korea	37.5683	126.978
34077272	2019-03-11	India		India	Make a visit	042	1.9	United States		United States	49100882	1	Indo-Asian News Service			Washington D.C.	United States	38.9171	-77.0003
34077273	2019-03-11	United States		United States	Host a visit	043	2.8	India		India	49100882	1	Indo-Asian News Service			Washington D.C.	United States	38.9171	-77.0003
34077280	2019-03-11	Inara Murniece	Legislative / Parliamentary,Government,Unicameral	Latvia	Make a visit	042	1.9	Sweden		Sweden	49100904	1	Baltic Daily				Sweden	59.3326	18.0649
34077281	2019-03-11	Sweden		Sweden	Host a visit	043	2.8	Inara Murniece	Legislative / Parliamentary,Government,Unicameral	Latvia	49100904	1	Baltic Daily				Sweden	59.3326	18.0649
34077274	2019-03-11	Inara Murniece	Legislative / Parliamentary,Government,Unicameral	Latvia	Express intent to meet or negotiate	036	4	Member of Legislative (Govt) (Latvia)	Legislative / Parliamentary,Government	Latvia	49100904	2	Baltic Daily	Riga		Riga	Latvia	56.946	24.1059
34077275	2019-03-11	Inara Murniece	Legislative / Parliamentary,Government,Unicameral	Latvia	Express intent to meet or negotiate	036	4	Parliament of Sweden	Unicameral,Government,Legislative / Parliamentary	Sweden	49100904	2	Baltic Daily	Riga		Riga	Latvia	56.946	24.1059
34077276	2019-03-11	Member of Legislative (Govt) (Latvia)	Legislative / Parliamentary,Government	Latvia	Express intent to meet or negotiate	036	4	Head of Government (Sweden)	Executive Office,Government,Executive	Sweden	49100904	4	Baltic Daily	Stockholm	Stockholms Kommun	Stockholm	Sweden	59.3326	18.0649
34077277	2019-03-11	Member of Legislative (Govt) (Latvia)	Legislative / Parliamentary,Government	Latvia	Express intent to meet or negotiate	036	4	Margot Wallström	Foreign Ministry,Government,Executive	Sweden	49100904	4	Baltic Daily	Stockholm	Stockholms Kommun	Stockholm	Sweden	59.3326	18.0649
34077278	2019-03-11	Member of Legislative (Govt) (Latvia)	Legislative / Parliamentary,Government	Latvia	Express intent to meet or negotiate	036	4	Peter Hultqvist	Defense / Security Ministry,Government,Executive	Sweden	49100904	4	Baltic Daily	Stockholm	Stockholms Kommun	Stockholm	Sweden	59.3326	18.0649
34077279	2019-03-11	Saeima	Legislative / Parliamentary,Government,Unicameral	Latvia	Express intent to meet or negotiate	036	4	Indigenous People (Sweden)	Social,General Population / Civilian / Social	Sweden	49100904	6	Baltic Daily	Stockholm	Stockholms Kommun	Stockholm	Sweden	59.3326	18.0649
34077262	2019-03-11	Hassan Rouhani	Government,Elite,Government Religious,(National) Major Party,Parties,Ideological,Executive,Executive Office,Far Right,Defense / Security Ministry	Iran	Express intent to meet or negotiate	036	4	Iraq		Iraq	49100906	1	Agence France-Presse	Baghdad		Muhafazat Baghdad	Iraq	33.3406	44.4009
34077261	2019-03-11	Citizen (Iran)	General Population / Civilian / Social,Social	Iran	Appeal for aid	023	3.4	Iran		Iran	49100906	4	Agence France-Presse	Tehran		Tehran Province	Iran	35.6944	51.4215
34077312	2019-03-11	Muhammadu Buhari	(National) Minor Party,International Religious,Center Left,Executive,Muslim,Ideological,Executive Office,Parties,(National) Major Party,Far Right,Elite,Fulani / Fulbe,International Ethnic,Government	Nigeria	Consult	040	1	Representatives (Nigeria)	Legislative / Parliamentary,Government	Nigeria	49100913	2	All Africa			Katsina State	Nigeria	12.25	7.5
34077313	2019-03-11	Indigenous People (Nigeria)	General Population / Civilian / Social,Social	Nigeria	Praise or endorse	051	3.4	Muhammadu Buhari	(National) Minor Party,International Religious,Center Left,Executive,Muslim,Ideological,Executive Office,Parties,(National) Major Party,Far Right,Elite,Fulani / Fulbe,International Ethnic,Government	Nigeria	49100913	2	All Africa			Katsina State	Nigeria	12.25	7.5
34077314	2019-03-11	Representatives (Nigeria)	Legislative / Parliamentary,Government	Nigeria	Consult	040	1	Muhammadu Buhari	(National) Minor Party,International Religious,Center Left,Executive,Muslim,Ideological,Executive Office,Parties,(National) Major Party,Far Right,Elite,Fulani / Fulbe,International Ethnic,Government	Nigeria	49100913	2	All Africa			Katsina State	Nigeria	12.25	7.5
34077246	2019-03-11	Kim Jong-Un	Executive Office,Government,Executive,Elite,Government Major Party (In Government),(National) Major Party,Parties	North Korea	Make a visit	042	1.9	Education (North Korea)	Social,Education	North Korea	49100918	1	Yonhap English News	Pyongyang		P'yongyang-si	North Korea	39.0339	125.754
34077247	2019-03-11	Education (North Korea)	Social,Education	North Korea	Host a visit	043	2.8	Kim Jong-Un	Executive Office,Government,Executive,Elite,Government Major Party (In Government),(National) Major Party,Parties	North Korea	49100918	1	Yonhap English News	Pyongyang		P'yongyang-si	North Korea	39.0339	125.754
34077360	2019-03-11	Workneh Gebeyehu	Government,Foreign Ministry,Executive	Ethiopia	Make empathetic comment	018	3.4	Government (Ethiopia)	Government	Ethiopia	49100919	2	Yemen News Agency (SABA)	Saba		Afar Region	Ethiopia	14.0755	40.1682
34077296	2019-03-11	Head of Government (Ethiopia)	Government,Executive Office,Executive	Ethiopia	Make empathetic comment	018	3.4	Citizen (Ethiopia)	General Population / Civilian / Social,Social	Ethiopia	49100920	1	Yemen News Agency (SABA)	Saba		Afar Region	Ethiopia	14.0755	40.1682
34077302	2019-03-11	China		China	Consider policy option	014	0	Government (China)	Government	China	49100922	1	Taipei Times	Chongqing		Chongqing Shi	China	29.5628	106.553
34077300	2019-03-11	Huanqiu Shibao	Government Major Party (In Government),(National) Major Party,Parties	China	Make statement	010	0	People's Congress (China)	Parties	China	49100922	2	Taipei Times	Kaohsiung		Kaohsiung	Taiwan	22.6163	120.313
34077301	2019-03-11	Huanqiu Shibao	Government Major Party (In Government),(National) Major Party,Parties	China	Make optimistic comment	013	0.4	City Mayor (China)	Local,Municipal,Government	China	49100922	6	Taipei Times	Chongqing		Chongqing Shi	China	29.5628	106.553
34077356	2019-03-11	Krisjanis Karins	Regional Diplomatic IGOs,International Government Organization,(National) Minor Party,Ideological,Center Right,Regional,Social,Consumer Goods Business,Parties,Business	Latvia	Express intent to meet or negotiate	036	4	Angela Merkel	Protestant,Government,Executive Office,(National) Major Party,Executive,Parties,International Religious,Christian,Ideological,Center Right,Elite	Germany	49100928	1	Latvian News Agency	Berlin		Land Berlin	Germany	52.5244	13.4105
34077357	2019-03-11	Head of Government (Latvia)	Executive Office,Executive,Government	Latvia	Express intent to meet or negotiate	036	4	Head of Government (Germany)	Executive,Government,Executive Office	Germany	49100928	4	Latvian News Agency	Riga		Riga	Latvia	56.946	24.1059
34077309	2019-03-11	Malaysia		Malaysia	Express intent to ease administrative sanctions	0351	7	Women (Indonesia)	Social,General Population / Civilian / Social	Indonesia	49100929	1	Reuters News	Kuala Lumpur		Kuala Lumpur	Malaysia	3.1412	101.687
34077310	2019-03-11	Malaysia		Malaysia	Yield	080	5	Indonesia		Indonesia	49100929	1	Reuters News	Kuala Lumpur		Kuala Lumpur	Malaysia	3.1412	101.687
34077311	2019-03-11	Malaysia		Malaysia	Ease administrative sanctions	081	5	Women (Indonesia)	Social,General Population / Civilian / Social	Indonesia	49100929	2	Reuters News	Kuala Lumpur		Kuala Lumpur	Malaysia	3.1412	101.687
34077293	2019-03-11	North Korea		North Korea	Cooperate militarily	062	7.4	Armed Rebel (Houthis)	Dissident,Insurgents,Shia,International Religious	Yemen	49100932	3	The Wall Street Journal	Pyongyang		P'yongyang-si	North Korea	39.0339	125.754
34077294	2019-03-11	North Korea		North Korea	Cooperate militarily	062	7.4	Libya		Libya	49100932	3	The Wall Street Journal	Pyongyang		P'yongyang-si	North Korea	39.0339	125.754
34077295	2019-03-11	North Korea		North Korea	Cooperate militarily	062	7.4	Sudan		Sudan	49100932	3	The Wall Street Journal	Pyongyang		P'yongyang-si	North Korea	39.0339	125.754
34077321	2019-03-11	Militant (Myanmar)	Unidentified Forces	Myanmar	Use unconventional violence	180	-9	Military (Myanmar)	Government,Military	Myanmar	49100935	1	The Wall Street Journal			Rakhine State	Myanmar	19	94.25
34077322	2019-03-11	Military (Myanmar)	Government,Military	Myanmar	Use conventional military force	190	-10	Militant (Myanmar)	Unidentified Forces	Myanmar	49100935	1	The Wall Street Journal			Rakhine State	Myanmar	19	94.25
34077320	2019-03-11	Combatant (Myanmar)	Unidentified Forces	Myanmar	Use unconventional violence	180	-9	Police (Myanmar)	Police,Government	Myanmar	49100935	2	The Wall Street Journal			Rakhine State	Myanmar	19	94.25
34077319	2019-03-11	United Nations	Global,International Government Organization,Global Diplomatic IGOs		Make statement	010	0	Military (Myanmar)	Government,Military	Myanmar	49100935	6	The Wall Street Journal			Rakhine State	Myanmar	19	94.25
34077345	2019-03-11	Lawyer/Attorney (Italy)	Social,Legal	Italy	Investigate crime, corruption	091	-2	Matteo Salvini	Secular,Parties,Ideological,(National) Minor Party	Italy	49100936	5	The Wall Street Journal	Rome	Provincia di Roma	Lazio	Italy	41.8947	12.4839
34077346	2019-03-11	Matteo Salvini	Secular,Parties,Ideological,(National) Minor Party	Italy	Abduct, hijack, or take hostage	181	-9	Immigrants (Italy)	General Population / Civilian / Social,Social	Italy	49100936	5	The Wall Street Journal	Rome	Provincia di Roma	Lazio	Italy	41.8947	12.4839
34077288	2019-03-11	Court Judge (Malaysia)	Government,Judicial	Malaysia	Praise or endorse	051	3.4	Lawyer/Attorney (Malaysia)	Legal,Social	Malaysia	49100938	3	Channel NewsAsia	Shah Alam		Selangor	Malaysia	3.08507	101.533
34077363	2019-03-11	Krisjanis Karins	Regional Diplomatic IGOs,International Government Organization,(National) Minor Party,Ideological,Center Right,Regional,Social,Consumer Goods Business,Parties,Business	Latvia	Express intent to meet or negotiate	036	4	Angela Merkel	Protestant,Government,Executive Office,(National) Major Party,Executive,Parties,International Religious,Christian,Ideological,Center Right,Elite	Germany	49100940	1	Baltic Daily	Berlin		Land Berlin	Germany	52.5244	13.4105
34077364	2019-03-11	Head of Government (Latvia)	Executive Office,Executive,Government	Latvia	Express intent to meet or negotiate	036	4	Head of Government (Germany)	Executive,Government,Executive Office	Germany	49100940	4	Baltic Daily	Riga		Riga	Latvia	56.946	24.1059
34077287	2019-03-11	Scott Morrison	Finance / Economy / Commerce / Trade Ministry,(National) Major Party,Opposition Major Party (Out Of Government),Lower House,Government,Legislative / Parliamentary,Executive,Parties	Australia	Criticize or denounce	111	-2	Bill Shorten	Protestors / Popular Opposition / Mobs,Dissident	Australia	49100949	4	Xinhua News Agency	Canberra		Australian Capital Territory	Australia	-35.2835	149.128
34077315	2019-03-11	Krisjanis Karins	Regional Diplomatic IGOs,International Government Organization,(National) Minor Party,Ideological,Center Right,Regional,Social,Consumer Goods Business,Parties,Business	Latvia	Express intent to meet or negotiate	036	4	Angela Merkel	Protestant,Government,Executive Office,(National) Major Party,Executive,Parties,International Religious,Christian,Ideological,Center Right,Elite	Germany	49100956	1	Latvian News Agency	Berlin		Land Berlin	Germany	52.5244	13.4105
34077316	2019-03-11	Head of Government (Latvia)	Executive Office,Executive,Government	Latvia	Express intent to meet or negotiate	036	4	Head of Government (Germany)	Executive,Government,Executive Office	Germany	49100956	4	Latvian News Agency	Riga		Riga	Latvia	56.946	24.1059
34077352	2019-03-11	Foreign Affairs (United States)	Foreign Ministry,Government,Executive	United States	Make an appeal or request	020	3	China		China	49100957	1	Reuters News	Taipei		Taipei	Taiwan	25.0478	121.532
34077351	2019-03-11	Sam Brownback	Government,Provincial,Local,(National) Major Party,Parties,Ideological,Center Right	United States	Make statement	010	0	Taiwan		Taiwan	49100957	3	Reuters News			Xinjiang Uygur Zizhiqu	China	42.5692	85.4561
34077283	2019-03-11	Japan		Japan	Consult	040	1	South Korea		South Korea	49100960	1	Jiji Press English News Service	Seoul		Seoul-teukbyeolsi	South Korea	37.5683	126.978
34077284	2019-03-11	South Korea		South Korea	Consult	040	1	Japan		Japan	49100960	1	Jiji Press English News Service	Seoul		Seoul-teukbyeolsi	South Korea	37.5683	126.978
34077270	2019-03-11	Governor (India)	Local,Provincial,Government	India	Consult	040	1	Bharatiya Janata	Parties,Opposition Major Party (Out Of Government),(National) Major Party	India	49100976	2	Hindustan Times	Thiruvananthapuram		State of Kerala	India	8.4855	76.9492
34077271	2019-03-11	Bharatiya Janata	Parties,Opposition Major Party (Out Of Government),(National) Major Party	India	Consult	040	1	Governor (India)	Local,Provincial,Government	India	49100976	2	Hindustan Times	Thiruvananthapuram		State of Kerala	India	8.4855	76.9492
34077268	2019-03-11	Air Force (India)	Military,Air Force,Government	India	Use conventional military force	190	-10	Pakistan		Pakistan	49100977	1	Hindustan Times	Pulwama		State of Jammu and Kashmir	India	33.8741	74.8996
34077266	2019-03-11	Sushma Swaraj	Foreign Ministry,Executive,Elite,Legislative / Parliamentary,Government	India	Make statement	010	0	Bharatiya Janata	Parties,Opposition Major Party (Out Of Government),(National) Major Party	India	49100977	2	Hindustan Times	Pulwama		State of Jammu and Kashmir	India	33.8741	74.8996
34077267	2019-03-11	Sushma Swaraj	Foreign Ministry,Executive,Elite,Legislative / Parliamentary,Government	India	Make statement	010	0	Employee (India)	Social,Labor	India	49100977	2	Hindustan Times	Pulwama		State of Jammu and Kashmir	India	33.8741	74.8996
34077349	2019-03-11	Krisjanis Karins	Regional Diplomatic IGOs,International Government Organization,(National) Minor Party,Ideological,Center Right,Regional,Social,Consumer Goods Business,Parties,Business	Latvia	Express intent to meet or negotiate	036	4	Angela Merkel	Protestant,Government,Executive Office,(National) Major Party,Executive,Parties,International Religious,Christian,Ideological,Center Right,Elite	Germany	49100981	1	Baltic Daily	Berlin		Land Berlin	Germany	52.5244	13.4105
34077350	2019-03-11	Head of Government (Latvia)	Executive Office,Executive,Government	Latvia	Express intent to meet or negotiate	036	4	Head of Government (Germany)	Executive,Government,Executive Office	Germany	49100981	4	Baltic Daily	Riga		Riga	Latvia	56.946	24.1059
34077341	2019-03-11	Citizen (Algeria)	General Population / Civilian / Social,Social	Algeria	Demonstrate or rally	141	-6.5	Abdelaziz Bouteflika	Executive,(National) Major Party,Parties,Elite,Government,Far Left,Ideological,Executive Office	Algeria	49100982	5	All Africa	Geneve		Canton de Geneve	Switzerland	46.2022	6.14569
34077421	2019-03-11	South Korea		South Korea	Investigate	090	-2	Passenger Jet (South Korea)	Social,General Population / Civilian / Social	South Korea	49101049	3	Yonhap English News			Sejong	South Korea	36.5833	127.233
34077422	2019-03-11	South Korea		South Korea	Investigate	090	-2	Citizen (South Korea)	Social,General Population / Civilian / Social	South Korea	49101049	3	Yonhap English News			Sejong	South Korea	36.5833	127.233
34077386	2019-03-11	Malaysia		Malaysia	Return, release person(s)	0841	7	Women (Indonesia)	General Population / Civilian / Social,Social	Indonesia	49101050	1	Xinhua News Agency	Shah Alam		Selangor	Malaysia	3.08507	101.533
34077448	2019-03-11	Hassan Rouhani	Far Right,Elite,Executive Office,Government,Ideological,Executive,Defense / Security Ministry,(National) Major Party,Parties,Government Religious	Iran	Make a visit	042	1.9	Iraq		Iraq	49101051	1	Xinhua News Agency	Baghdad		Muhafazat Baghdad	Iraq	33.3406	44.4009
34077450	2019-03-11	Iraq		Iraq	Host a visit	043	2.8	Hassan Rouhani	Far Right,Elite,Executive Office,Government,Ideological,Executive,Defense / Security Ministry,(National) Major Party,Parties,Government Religious	Iran	49101051	1	Xinhua News Agency	Baghdad		Muhafazat Baghdad	Iraq	33.3406	44.4009
34077446	2019-03-11	Hassan Rouhani	Far Right,Elite,Executive Office,Government,Ideological,Executive,Defense / Security Ministry,(National) Major Party,Parties,Government Religious	Iran	Express intent to meet or negotiate	036	4	Iraq		Iraq	49101051	2	Xinhua News Agency	Baghdad		Muhafazat Baghdad	Iraq	33.3406	44.4009
34077447	2019-03-11	Hassan Rouhani	Far Right,Elite,Executive Office,Government,Ideological,Executive,Defense / Security Ministry,(National) Major Party,Parties,Government Religious	Iran	Express intent to meet or negotiate	036	4	Citizen (Iraq)	Social,General Population / Civilian / Social	Iraq	49101051	2	Xinhua News Agency	Baghdad		Muhafazat Baghdad	Iraq	33.3406	44.4009
34077449	2019-03-11	Foreign Affairs (Iran)	Foreign Ministry,Government,Executive	Iran	Make a visit	042	1.9	Iraq		Iraq	49101051	4	Xinhua News Agency	Baghdad		Muhafazat Baghdad	Iraq	33.3406	44.4009
34077451	2019-03-11	Iraq		Iraq	Host a visit	043	2.8	Foreign Affairs (Iran)	Foreign Ministry,Government,Executive	Iran	49101051	4	Xinhua News Agency	Baghdad		Muhafazat Baghdad	Iraq	33.3406	44.4009
34077377	2019-03-11	Chun Doo Hwan	Elite	South Korea	Demand	100	-5	Military (South Korea)	Government,Military	South Korea	49101058	4	The Korea Herald			Gwangju	South Korea	35.1667	126.917
34077376	2019-03-11	Chun Doo Hwan	Elite	South Korea	Make a visit	042	1.9	Gwangju District Court	Government,Judicial	South Korea	49101058	6	The Korea Herald	Seoul		Seoul-teukbyeolsi	South Korea	37.5683	126.978
34077378	2019-03-11	Gwangju District Court	Government,Judicial	South Korea	Host a visit	043	2.8	Chun Doo Hwan	Elite	South Korea	49101058	6	The Korea Herald	Seoul		Seoul-teukbyeolsi	South Korea	37.5683	126.978
34077423	2019-03-11	Congress (India)	Legislative / Parliamentary,Government	India	Engage in negotiation	046	7	Rashtriya Janata Dal	Parties,Opposition Major Party (Out Of Government),(National) Major Party	India	49101060	5	Hindustan Times			Karnataka	India	16	75
34077424	2019-03-11	Rashtriya Janata Dal	Parties,Opposition Major Party (Out Of Government),(National) Major Party	India	Engage in negotiation	046	7	Congress (India)	Legislative / Parliamentary,Government	India	49101060	5	Hindustan Times			Karnataka	India	16	75
34077455	2019-03-11	Nepal		Nepal	Make an appeal or request	020	3	China		China	49101062	1	Hindustan Times	Dharamshala	Dhawalagiri Zone	Pashchimanchal	Nepal	28.3252	83.1592
34077456	2019-03-11	Lobsang Sangay	Government,Local,Provincial,Nongovernmental Organizations / Activists,International Ethnic,Human Rights NGOs,Tibetan	China	Appeal for diplomatic cooperation (such as policy support)	022	3.4	International			49101062	4	Hindustan Times			Tibet	China	33.2111	86.1328
34077407	2019-03-11	Citizen (India)	General Population / Civilian / Social,Social	India	Accuse	112	-2	Bharatiya Janata	Parties,Opposition Major Party (Out Of Government),(National) Major Party	India	49101066	4	Hindustan Times			State of Uttarakhand	India	30.25	79.25
34077371	2019-03-11	Ranjan Gogoi	Government,Judicial	India	Make an appeal or request	020	3	Citizen (India)	General Population / Civilian / Social,Social	India	49101067	4	Indo-Asian News Service	New Delhi		National Capital Territory of Delhi	India	28.6358	77.2244
34077440	2019-03-11	BBC	Social,Media	United Kingdom	Consult	040	1	European Commission	Regional Diplomatic IGOs,International Government Organization,Regional		49101069	2	Indo-Asian News Service				United Kingdom	51.5085	-0.12574
34077441	2019-03-11	European Commission	Regional Diplomatic IGOs,International Government Organization,Regional		Consult	040	1	BBC	Social,Media	United Kingdom	49101069	2	Indo-Asian News Service				United Kingdom	51.5085	-0.12574
34077434	2019-03-11	Lawyer/Attorney (Malaysia)	Social,Legal	Malaysia	Ease administrative sanctions	081	5	Women (Indonesia)	General Population / Civilian / Social,Social	Indonesia	49101071	1	Agence France-Presse	Kuala Lumpur		Kuala Lumpur	Malaysia	3.1412	101.687
34077427	2019-03-11	Gladys Berejiklian	Government	Australia	Make statement	010	0	Government (Australia)	Government	Australia	49101072	6	Australian Associated Press				Australia	-35.2835	149.128
34077412	2019-03-11	Hassan Rouhani	Far Right,Elite,Executive Office,Government,Ideological,Executive,Defense / Security Ministry,(National) Major Party,Parties,Government Religious	Iran	Make statement	010	0	Iran		Iran	49101076	2	Organisation of Asia-Pacific News Agencies	Baghdad		Muhafazat Baghdad	Iraq	33.3406	44.4009
34077415	2019-03-11	Hassan Rouhani	Far Right,Elite,Executive Office,Government,Ideological,Executive,Defense / Security Ministry,(National) Major Party,Parties,Government Religious	Iran	Make a visit	042	1.9	Iraq		Iraq	49101076	2	Organisation of Asia-Pacific News Agencies	Baghdad		Muhafazat Baghdad	Iraq	33.3406	44.4009
34077417	2019-03-11	Hassan Rouhani	Far Right,Elite,Executive Office,Government,Ideological,Executive,Defense / Security Ministry,(National) Major Party,Parties,Government Religious	Iran	Praise or endorse	051	3.4	Citizen (Iraq)	Social,General Population / Civilian / Social	Iraq	49101076	2	Organisation of Asia-Pacific News Agencies	Baghdad		Muhafazat Baghdad	Iraq	33.3406	44.4009
34077419	2019-03-11	Iraq		Iraq	Host a visit	043	2.8	Hassan Rouhani	Far Right,Elite,Executive Office,Government,Ideological,Executive,Defense / Security Ministry,(National) Major Party,Parties,Government Religious	Iran	49101076	2	Organisation of Asia-Pacific News Agencies	Baghdad		Muhafazat Baghdad	Iraq	33.3406	44.4009
34077416	2019-03-11	Hassan Rouhani	Far Right,Elite,Executive Office,Government,Ideological,Executive,Defense / Security Ministry,(National) Major Party,Parties,Government Religious	Iran	Make a visit	042	1.9	Iraq		Iraq	49101076	3	Organisation of Asia-Pacific News Agencies	Baghdad		Muhafazat Baghdad	Iraq	33.3406	44.4009
34077420	2019-03-11	Iraq		Iraq	Host a visit	043	2.8	Hassan Rouhani	Far Right,Elite,Executive Office,Government,Ideological,Executive,Defense / Security Ministry,(National) Major Party,Parties,Government Religious	Iran	49101076	3	Organisation of Asia-Pacific News Agencies	Baghdad		Muhafazat Baghdad	Iraq	33.3406	44.4009
34077413	2019-03-11	Hassan Rouhani	Far Right,Elite,Executive Office,Government,Ideological,Executive,Defense / Security Ministry,(National) Major Party,Parties,Government Religious	Iran	Express intent to meet or negotiate	036	4	Barham Salih	(National) Minor Party,International Religious,Provincial Party,Nationalist,Sunni,Ideological,Center Left,Government,International Ethnic,Kurd (Ethnic Group),Parties,Local,Provincial	Iraq	49101076	4	Organisation of Asia-Pacific News Agencies	Baghdad		Muhafazat Baghdad	Iraq	33.3406	44.4009
34077414	2019-03-11	Barham Salih	(National) Minor Party,International Religious,Provincial Party,Nationalist,Sunni,Ideological,Center Left,Government,International Ethnic,Kurd (Ethnic Group),Parties,Local,Provincial	Iraq	Consult	040	1	Adil Abdul-Mahdi	International Religious,Shia		49101076	5	Organisation of Asia-Pacific News Agencies	Tehran		Tehran Province	Iran	35.6944	51.4215
34077418	2019-03-11	Adil Abdul-Mahdi	International Religious,Shia		Consult	040	1	Barham Salih	(National) Minor Party,International Religious,Provincial Party,Nationalist,Sunni,Ideological,Center Left,Government,International Ethnic,Kurd (Ethnic Group),Parties,Local,Provincial	Iraq	49101076	5	Organisation of Asia-Pacific News Agencies	Tehran		Tehran Province	Iran	35.6944	51.4215
34077462	2019-03-11	Omar Abdullah	Elite	India	Accuse	112	-2	Narendra Modi	Dissident,Nationalist,Ideological,Hindu,Radicals / Extremists / Fundamentalists,International Religious,Opposition Major Party (Out Of Government),(National) Major Party,Parties,Elite,Far Right	India	49101079	3	Hindustan Times	Srinagar		State of Jammu and Kashmir	India	34.0884	74.803
34077461	2019-03-11	Narendra Modi	Dissident,Nationalist,Ideological,Hindu,Radicals / Extremists / Fundamentalists,International Religious,Opposition Major Party (Out Of Government),(National) Major Party,Parties,Elite,Far Right	India	Retreat or surrender militarily	0874	10	Pakistan		Pakistan	49101079	4	Hindustan Times	Kashmir		Punjab	Pakistan	31.3422	74.3653
34077387	2019-03-11	Malaysia		Malaysia	Ease administrative sanctions	081	5	Citizen (Malaysia)	Social,General Population / Civilian / Social	Malaysia	49101084	3	Deutsche Welle	Kuala Lumpur		Kuala Lumpur	Malaysia	3.1412	101.687
34077396	2019-03-11	Criminal (Nigeria)	Dissident,Criminals / Gangs	Nigeria	Use unconventional violence	180	-9	Citizen (Nigeria)	Social,General Population / Civilian / Social	Nigeria	49101091	1	All Africa		Zurmi Local Government Area	Zamfara State	Nigeria	12.8115	6.7938
34077395	2019-03-11	Criminal (Nigeria)	Dissident,Criminals / Gangs	Nigeria	Use unconventional violence	180	-9	Businessperson (Nigeria)	Social,Business	Nigeria	49101091	6	All Africa	Zurmi		Zamfara State	Nigeria	12.7776	6.7834
34077389	2019-03-11	Military (Nigeria)	Military,Government	Nigeria	Accuse	112	-2	Party Member (Nigeria)	Parties	Nigeria	49101094	1	All Africa				Nigeria	9.17583	7.18083
34077388	2019-03-11	Military Personnel (Nigeria)	Military,Government	Nigeria	Make statement	010	0	Criminal (Nigeria)	Dissident,Criminals / Gangs	Nigeria	49101094	2	All Africa				Nigeria	9.17583	7.18083
34077374	2019-03-11	Police (Malawi)	Government,Police	Malawi	Use conventional military force	190	-10	Citizen (Malawi)	General Population / Civilian / Social,Social	Malawi	49101101	1	All Africa	Lilongwe	Lilongwe District	Central Region	Malawi	-13.9669	33.7873
34077375	2019-03-11	Citizen (Malawi)	General Population / Civilian / Social,Social	Malawi	Protest violently, riot	145	-7.5	Police (Malawi)	Government,Police	Malawi	49101101	1	All Africa	Lilongwe	Lilongwe District	Central Region	Malawi	-13.9669	33.7873
34077372	2019-03-11	Henry Mussa	Government,Unicameral,Legislative / Parliamentary	Malawi	Make statement	010	0	Malawi		Malawi	49101101	4	All Africa	Lilongwe	Lilongwe District	Central Region	Malawi	-13.9669	33.7873
34077373	2019-03-11	Citizen (Malawi)	General Population / Civilian / Social,Social	Malawi	Demonstrate or rally	141	-6.5	Unspecified Actor	Unspecified		49101101	5	All Africa	Lilongwe	Lilongwe District	Central Region	Malawi	-13.9669	33.7873
34077433	2019-03-11	Theresa May	Elite,Ideological,Executive Office,Center Right,(National) Major Party,Executive,Parties,Government	United Kingdom	Criticize or denounce	111	-2	Scottish National Party	(National) Minor Party,Nationalist,Ideological,Center Left,Parties	United Kingdom	49101103	2	The Scotsman	City of Westminster	Greater London	England	United Kingdom	51.5	-0.11667
34077454	2019-03-11	Sandiganbayan	National / Supreme Court,Government,Judicial	Philippines	Ease administrative sanctions	081	5	City Mayor (Philippines)	Local,Municipal,Government	Philippines	49101110	1	PNA (Philippines News Agency)	Cavite	Province of Nueva Ecija	Central Luzon	Philippines	15.6778	120.77
34077460	2019-03-11	Delfin Lorenzana	Defense / Security Ministry,Executive,Government	Philippines	Express intent to meet or negotiate	036	4	South Korea		South Korea	49101111	1	PNA (Philippines News Agency)	Manila	City of Manila	National Capital Region	Philippines	14.6042	120.982
34077405	2019-03-11	Police (Philippines)	Government,Police	Philippines	Make statement	010	0	Business (Philippines)	Social,Business	Philippines	49101112	6	PNA (Philippines News Agency)	Manila	City of Manila	National Capital Region	Philippines	14.6042	120.982
34077443	2019-03-11	Lawmaker (United Kingdom)	Government,Legislative / Parliamentary	United Kingdom	Make an appeal or request	020	3	Theresa May	Elite,Ideological,Executive Office,Center Right,(National) Major Party,Executive,Parties,Government	United Kingdom	49101113	1	Reuters News	London	Greater London	England	United Kingdom	51.5085	-0.12574
34077410	2019-03-11	Citizen (Singapore)	General Population / Civilian / Social,Social	Singapore	Accuse	112	-2	Medical Personnel (Singapore)	Nongovernmental Organizations / Activists,Medical / Health NGOs	Singapore	49101119	2	Channel NewsAsia				Singapore	1.28967	103.85
34077397	2019-03-11	Hassan Rouhani	Far Right,Elite,Executive Office,Government,Ideological,Executive,Defense / Security Ministry,(National) Major Party,Parties,Government Religious	Iran	Make a visit	042	1.9	Iraq		Iraq	49101121	1	Agence France-Presse	Baghdad		Muhafazat Baghdad	Iraq	33.3406	44.4009
34077400	2019-03-11	Iraq		Iraq	Host a visit	043	2.8	Hassan Rouhani	Far Right,Elite,Executive Office,Government,Ideological,Executive,Defense / Security Ministry,(National) Major Party,Parties,Government Religious	Iran	49101121	1	Agence France-Presse	Baghdad		Muhafazat Baghdad	Iraq	33.3406	44.4009
34077398	2019-03-11	Hassan Rouhani	Far Right,Elite,Executive Office,Government,Ideological,Executive,Defense / Security Ministry,(National) Major Party,Parties,Government Religious	Iran	Make a visit	042	1.9	Iraq		Iraq	49101121	3	Agence France-Presse	Baghdad		Muhafazat Baghdad	Iraq	33.3406	44.4009
34077401	2019-03-11	Iraq		Iraq	Host a visit	043	2.8	Hassan Rouhani	Far Right,Elite,Executive Office,Government,Ideological,Executive,Defense / Security Ministry,(National) Major Party,Parties,Government Religious	Iran	49101121	3	Agence France-Presse	Baghdad		Muhafazat Baghdad	Iraq	33.3406	44.4009
34077399	2019-03-11	Hassan Rouhani	Far Right,Elite,Executive Office,Government,Ideological,Executive,Defense / Security Ministry,(National) Major Party,Parties,Government Religious	Iran	Make a visit	042	1.9	Iraq		Iraq	49101121	4	Agence France-Presse	Baghdad		Muhafazat Baghdad	Iraq	33.3406	44.4009
34077402	2019-03-11	Iraq		Iraq	Host a visit	043	2.8	Hassan Rouhani	Far Right,Elite,Executive Office,Government,Ideological,Executive,Defense / Security Ministry,(National) Major Party,Parties,Government Religious	Iran	49101121	4	Agence France-Presse	Baghdad		Muhafazat Baghdad	Iraq	33.3406	44.4009
34077432	2019-03-11	Taliban	International Religious,Fundamentalist,Dissident,Sunni,Ideological,Insurgents	Afghanistan	Use conventional military force	190	-10	Police (Afghanistan)	Police,Government	Afghanistan	49101124	2	Xinhua News Agency	Bala Murghab		Badghis	Afghanistan	35.5841	63.3289
34077391	2019-03-11	Hassan Rouhani	Far Right,Elite,Executive Office,Government,Ideological,Executive,Defense / Security Ministry,(National) Major Party,Parties,Government Religious	Iran	Make a visit	042	1.9	Iraq		Iraq	49101127	2	Organisation of Asia-Pacific News Agencies	Baghdad		Muhafazat Baghdad	Iraq	33.3406	44.4009
34077393	2019-03-11	Iraq		Iraq	Host a visit	043	2.8	Hassan Rouhani	Far Right,Elite,Executive Office,Government,Ideological,Executive,Defense / Security Ministry,(National) Major Party,Parties,Government Religious	Iran	49101127	2	Organisation of Asia-Pacific News Agencies	Baghdad		Muhafazat Baghdad	Iraq	33.3406	44.4009
34077392	2019-03-11	Hassan Rouhani	Far Right,Elite,Executive Office,Government,Ideological,Executive,Defense / Security Ministry,(National) Major Party,Parties,Government Religious	Iran	Make a visit	042	1.9	Iraq		Iraq	49101127	3	Organisation of Asia-Pacific News Agencies	Baghdad		Muhafazat Baghdad	Iraq	33.3406	44.4009
34077394	2019-03-11	Iraq		Iraq	Host a visit	043	2.8	Hassan Rouhani	Far Right,Elite,Executive Office,Government,Ideological,Executive,Defense / Security Ministry,(National) Major Party,Parties,Government Religious	Iran	49101127	3	Organisation of Asia-Pacific News Agencies	Baghdad		Muhafazat Baghdad	Iraq	33.3406	44.4009
34077435	2019-03-11	African Union	Regional Diplomatic IGOs,International Government Organization,Regional		Make an appeal or request	020	3	Iran		Iran	49101128	2	Organisation of Asia-Pacific News Agencies	Tehran		Tehran Province	Iran	35.6944	51.4215
34077437	2019-03-11	Foreign Affairs (Iran)	Foreign Ministry,Government,Executive	Iran	Praise or endorse	051	3.4	African Union	Regional Diplomatic IGOs,International Government Organization,Regional		49101128	5	Organisation of Asia-Pacific News Agencies	Tehran		Tehran Province	Iran	35.6944	51.4215
34077436	2019-03-11	African Union	Regional Diplomatic IGOs,International Government Organization,Regional		Express intent to engage in diplomatic cooperation (such as policy support)	032	4.5	Iran		Iran	49101128	6	Organisation of Asia-Pacific News Agencies	Tehran		Tehran Province	Iran	35.6944	51.4215
34077409	2019-03-11	Election Commission (India)	Elections Ministry,Executive,Government	India	Investigate	090	-2	India		India	49101138	4	The New York Times	New Delhi		National Capital Territory of Delhi	India	28.6358	77.2244
34077385	2019-03-11	Nigerian Army	Army,Military,Government	Nigeria	Arrest, detain, or charge with legal action	173	-5	Citizen (Nigeria)	Social,General Population / Civilian / Social	Nigeria	49101163	1	All Africa	Lagos		Lagos State	Nigeria	6.45306	3.39583
34077384	2019-03-11	High Ranking Military Personnel (Nigeria)	Military,Government	Nigeria	Make statement	010	0	Criminal (Nigeria)	Dissident,Criminals / Gangs	Nigeria	49101163	5	All Africa	Oshodi		Lagos State	Nigeria	6.55817	3.34662
34077369	2019-03-11	Government (Nigeria)	Government	Nigeria	Make empathetic comment	018	3.4	Citizen (Nigeria)	Social,General Population / Civilian / Social	Nigeria	49101168	3	All Africa			Kaduna State	Nigeria	10.3333	7.75
34077379	2019-03-11	Independent National Electoral Commission	Executive,Government,Elections Ministry	Nigeria	Make statement	010	0	The Observer	Print News,Social,News,Media	Uganda	49101169	4	All Africa			Enugu State	Nigeria	6.5	7.5
34077382	2019-03-11	Ayogu Eze	Centrist,Parties,Upper House,Ideological,(National) Major Party,Government,Legislative / Parliamentary	Nigeria	Conduct strike or boycott	143	-6.5	Unspecified Actor	Unspecified		49101169	4	All Africa			Enugu State	Nigeria	6.5	7.5
34077380	2019-03-11	The Observer	Print News,Social,News,Media	Uganda	Make statement	010	0	Ayogu Eze	Centrist,Parties,Upper House,Ideological,(National) Major Party,Government,Legislative / Parliamentary	Nigeria	49101169	5	All Africa			Enugu State	Nigeria	6.5	7.5
34077381	2019-03-11	Police (Nigeria)	Police,Government	Nigeria	Provide humanitarian aid	073	7.4	The Observer	Print News,Social,News,Media	Uganda	49101169	5	All Africa			Enugu State	Nigeria	6.5	7.5
34077383	2019-03-11	Police (Nigeria)	Police,Government	Nigeria	Use conventional military force	190	-10	Men (Nigeria)	Social,General Population / Civilian / Social	Nigeria	49101169	5	All Africa			Enugu State	Nigeria	6.5	7.5
34077475	2019-03-11	Chun Doo Hwan	Elite	South Korea	Make statement	010	0	Priest (South Korea)	Social,National Religious	South Korea	49101228	5	Yonhap English News			Gwangju	South Korea	35.1667	126.917
34077496	2019-03-11	Asian Development Bank	Regional Development IGOs,International Government Organization,Regional		Praise or endorse	051	3.4	Niue		Niue	49101231	1	Xinhua News Agency	Manila	City of Manila	National Capital Region	Philippines	14.6042	120.982
34077464	2019-03-11	Taliban	Ideological,Insurgents,Dissident,Sunni,International Religious,Fundamentalist	Afghanistan	Use conventional military force	190	-10	Police (Afghanistan)	Government,Police	Afghanistan	49101232	2	Xinhua News Agency	Bala Murghab		Badghis	Afghanistan	35.5841	63.3289
34077500	2019-03-11	Hassan Rouhani	Ideological,Executive Office,Government Religious,Executive,Far Right,Defense / Security Ministry,Elite,(National) Major Party,Parties,Government	Iran	Make a visit	042	1.9	Iraq		Iraq	49101241	4	Reuters News	Baghdad		Muhafazat Baghdad	Iraq	33.3406	44.4009
34077501	2019-03-11	Iraq		Iraq	Host a visit	043	2.8	Hassan Rouhani	Ideological,Executive Office,Government Religious,Executive,Far Right,Defense / Security Ministry,Elite,(National) Major Party,Parties,Government	Iran	49101241	4	Reuters News	Baghdad		Muhafazat Baghdad	Iraq	33.3406	44.4009
34077499	2019-03-11	Hassan Rouhani	Ideological,Executive Office,Government Religious,Executive,Far Right,Defense / Security Ministry,Elite,(National) Major Party,Parties,Government	Iran	Make statement	010	0	Iran		Iran	49101241	6	Reuters News	Baghdad		Muhafazat Baghdad	Iraq	33.3406	44.4009
34077492	2019-03-11	Military Personnel - Special (India)	Military,Government	India	Use conventional military force	190	-10	Militant (Jaish-e-Mohammad)	International Dissident,Dissident,International Terrorists,Separatists	Pakistan	49101242	1	Indo-Asian News Service	Jammu		State of Jammu and Kashmir	India	32.7357	74.8691
34077493	2019-03-11	Citizen (India)	General Population / Civilian / Social,Social	India	Use unconventional violence	180	-9	Central Reserve Police Force	Police,Government	India	49101242	1	Indo-Asian News Service	Jammu		State of Jammu and Kashmir	India	32.7357	74.8691
34077489	2019-03-11	United States		United States	Use conventional military force	190	-10	Syria		Syria	49101243	5	Indo-Asian News Service			Hawaii	United States	20.7503	-156.5
34077467	2019-03-11	Treasury/Finance Ministry (Estonia)	Finance / Economy / Commerce / Trade Ministry,Executive,Government	Estonia	Express intent to meet or negotiate	036	4	Treasury/Finance Ministry (Belgium)	Government,Executive,Finance / Economy / Commerce / Trade Ministry	Belgium	49101249	1	Baltic Daily	Brussels	(Bruxelles-Capitale)	Bruxelles-Capitale	Belgium	50.8504	4.34878
34077468	2019-03-11	Toomas Tõniste	Finance / Economy / Commerce / Trade Ministry,Executive,Government	Estonia	Express intent to meet or negotiate	036	4	Treasury/Finance Ministry (Belgium)	Government,Executive,Finance / Economy / Commerce / Trade Ministry	Belgium	49101249	1	Baltic Daily	Brussels	(Bruxelles-Capitale)	Bruxelles-Capitale	Belgium	50.8504	4.34878
34077469	2019-03-11	Treasury/Finance Ministry (Estonia)	Finance / Economy / Commerce / Trade Ministry,Executive,Government	Estonia	Express intent to meet or negotiate	036	4	Belgium		Belgium	49101249	1	Baltic Daily	Brussels	(Bruxelles-Capitale)	Bruxelles-Capitale	Belgium	50.8504	4.34878
34077470	2019-03-11	Toomas Tõniste	Finance / Economy / Commerce / Trade Ministry,Executive,Government	Estonia	Express intent to meet or negotiate	036	4	Belgium		Belgium	49101249	1	Baltic Daily	Brussels	(Bruxelles-Capitale)	Bruxelles-Capitale	Belgium	50.8504	4.34878
34077471	2019-03-11	Treasury/Finance Ministry (Estonia)	Finance / Economy / Commerce / Trade Ministry,Executive,Government	Estonia	Express intent to meet or negotiate	036	4	Toomas Tõniste	Finance / Economy / Commerce / Trade Ministry,Executive,Government	Estonia	49101249	1	Baltic Daily	Brussels	(Bruxelles-Capitale)	Bruxelles-Capitale	Belgium	50.8504	4.34878
34077503	2019-03-11	Women (Myanmar)	General Population / Civilian / Social,Social	Myanmar	Appeal for de-escalation of military engagement	0256	-0.3	Military (Myanmar)	Military,Government	Myanmar	49101253	1	Agence France-Presse			Rakhine State	Myanmar	19	94.25
34077504	2019-03-11	Women (Myanmar)	General Population / Civilian / Social,Social	Myanmar	Appeal for de-escalation of military engagement	0256	-0.3	Insurgent (Myanmar)	Rebel,Dissident	Myanmar	49101253	1	Agence France-Presse			Rakhine State	Myanmar	19	94.25
34077523	2019-03-11	North Korea		North Korea	Engage in negotiation	046	7	Russia		Russian Federation	49101255	4	Yonhap English News	Moscow		Moskva	Russian Federation	55.7522	37.6156
34077524	2019-03-11	Russia		Russian Federation	Engage in negotiation	046	7	North Korea		North Korea	49101255	4	Yonhap English News	Moscow		Moskva	Russian Federation	55.7522	37.6156
34077554	2019-03-11	Foreign Affairs (Palestinian Territory, Occupied)	Foreign Ministry,Government,Executive	Occupied Palestinian Territory	Make an appeal or request	020	3	United Nations	International Government Organization,Global Diplomatic IGOs,Global		49101257	1	Yemen News Agency (SABA)	Sana'a		Sanaa	Yemen	15.3547	44.2067
34077555	2019-03-11	Expatriate (Palestinian Territory, Occupied)	Social,Refugees / Displaced	Occupied Palestinian Territory	Make an appeal or request	020	3	United Nations	International Government Organization,Global Diplomatic IGOs,Global		49101257	1	Yemen News Agency (SABA)	Sana'a		Sanaa	Yemen	15.3547	44.2067
34077472	2019-03-11	Bashar al-Assad	Ideological,Executive Office,Executive,Parties,(National) Major Party,National Ethnic,Far Right,Shia,Government,National Ethnic Minority,Social,National Religious,International Religious,Religious Minority	Syria	Make statement	010	0	Syria		Syria	49101259	1	Yemen News Agency (SABA)	Sana'a		Sanaa	Yemen	15.3547	44.2067
34077473	2019-03-11	Bashar al-Assad	Ideological,Executive Office,Executive,Parties,(National) Major Party,National Ethnic,Far Right,Shia,Government,National Ethnic Minority,Social,National Religious,International Religious,Religious Minority	Syria	Consult	040	1	Foreign Affairs (China)	Government,Foreign Ministry,Executive	China	49101259	2	Yemen News Agency (SABA)	Sana'a		Sanaa	Yemen	15.3547	44.2067
34077474	2019-03-11	Foreign Affairs (China)	Government,Foreign Ministry,Executive	China	Consult	040	1	Bashar al-Assad	Ideological,Executive Office,Executive,Parties,(National) Major Party,National Ethnic,Far Right,Shia,Government,National Ethnic Minority,Social,National Religious,International Religious,Religious Minority	Syria	49101259	2	Yemen News Agency (SABA)	Sana'a		Sanaa	Yemen	15.3547	44.2067
34077566	2019-03-11	Russia		Russian Federation	Use conventional military force	190	-10	Citizen (Syria)	General Population / Civilian / Social,Social	Syria	49101261	1	ITAR Tass			Idlib	Syria	35.7667	36.6667
34077567	2019-03-11	Military (Russia)	Government,Military	Russian Federation	Use conventional military force	190	-10	Syria		Syria	49101261	2	ITAR Tass			Idlib	Syria	35.7667	36.6667
34077535	2019-03-11	Military (Ukraine)	Military,Government	Ukraine	fight with small arms and light weapons	193	-10	Ukraine		Ukraine	49101264	3	ITAR Tass	Yasinovataya		Donets'ka Oblast'	Ukraine	48.1298	37.8594
34077547	2019-03-11	Representatives (Thailand)	Government,Legislative / Parliamentary	Thailand	Express intent to meet or negotiate	036	4	Thailand		Thailand	49101266	1	Organisation of Asia-Pacific News Agencies	Bangkok		Krung Thep Mahanakhon	Thailand	13.754	100.501
34077546	2019-03-11	Media Personnel (Thailand)	Media,Social	Thailand	Make statement	010	0	Business (United States)	Business,Social	United States	49101266	2	Organisation of Asia-Pacific News Agencies	Chiang Rai		Changwat Chiang Rai	Thailand	19.9086	99.8325
34077540	2019-03-11	Recep Tayyip Erdoğan	Center Right,Ideological,Elite,Executive Office,Sunni,Parties,(National) Major Party,International Religious,Executive,Government	Turkey	Criticize or denounce	111	-2	Citizen (Turkey)	Social,General Population / Civilian / Social	Turkey	49101267	1	L' Orient-Le Jour	Istanbul		Istanbul	Turkey	41.0138	28.9497
34077517	2019-03-11	Military (Palestinian Territory, Occupied)	Government,Military	Occupied Palestinian Territory	Employ aerial weapons	195	-10	Palestinian Territory, Occupied		Occupied Palestinian Territory	49101269	3	L' Orient-Le Jour			Gaza Strip	Occupied Palestinian Territory	31.4167	34.3333
34077564	2019-03-11	Yogendra Yadav	Ideological,Far Left,Parties,(National) Major Party,Social,Education	India	Accuse	112	-2	Government (Pakistan)	Government	Pakistan	49101273	4	India Today				Pakistan	33.7215	73.0433
34077560	2019-03-11	Shashi Tharoor	Government	India	Make statement	010	0	Bharatiya Janata	Parties,Opposition Major Party (Out Of Government),(National) Major Party	India	49101275	3	India Today				India	28.6358	77.2244
34077548	2019-03-11	Economist (India)	Education,Social	India	Make statement	010	0	Professor (India)	Education,Social	India	49101282	1	India Today				India	28.6358	77.2244
34077570	2019-03-11	Palaniappan Chidambaram	Parties,Government Major Party (In Government),(National) Major Party,Elite	India	Make statement	010	0	Congress (India)	Legislative / Parliamentary,Government	India	49101284	1	India Today	Pulwama		State of Jammu and Kashmir	India	33.8741	74.8996
34077571	2019-03-11	Palaniappan Chidambaram	Parties,Government Major Party (In Government),(National) Major Party,Elite	India	Make statement	010	0	Congress (India)	Legislative / Parliamentary,Government	India	49101284	3	India Today	Pulwama		State of Jammu and Kashmir	India	33.8741	74.8996
34077569	2019-03-11	Organisation of Islamic Cooperation	Global Diplomatic IGOs,International Government Organization,Global,International Religious,Muslim		Praise or endorse	051	3.4	Iraq		Iraq	49101292	3	India Today	Rabat	Rabat	Region de Rabat-Sale-Zemmour-Zaer	Morocco	34.0132	-6.83255
34077525	2019-03-11	Petro Poroshenko	Government,Executive Office,Consumer Goods Business,Finance / Economy / Commerce / Trade Ministry,Social,Business,Executive	Ukraine	Make optimistic comment	013	0.4	Russia		Russian Federation	49101297	2	Interfax News Service	Kerch	Kerch municipality	Avtonomna Respublika Krym	Ukraine	45.3607	36.4706
34077511	2019-03-11	Foreign Affairs (China)	Government,Foreign Ministry,Executive	China	Criticize or denounce	111	-2	Envoy (United States)	Government,Executive,Foreign Ministry	United States	49101301	1	Agence France-Presse				United States	38.8951	-77.0364
34077512	2019-03-11	Sam Brownback	Center Right,Ideological,Parties,(National) Major Party,Government,Provincial,Local	United States	Criticize or denounce	111	-2	Government (China)	Government	China	49101301	2	Agence France-Presse				China	39.9075	116.397
34077509	2019-03-11	Sam Brownback	Center Right,Ideological,Parties,(National) Major Party,Government,Provincial,Local	United States	Make statement	010	0	China		China	49101301	3	Agence France-Presse				China	39.9075	116.397
34077510	2019-03-11	Sam Brownback	Center Right,Ideological,Parties,(National) Major Party,Government,Provincial,Local	United States	Make statement	010	0	China		China	49101301	5	Agence France-Presse				China	39.9075	116.397
34077549	2019-03-11	Muhammadu Buhari	Ideological,Center Left,Government,Elite,Parties,International Ethnic,(National) Major Party,Far Right,Muslim,Fulani / Fulbe,Executive,Executive Office,(National) Minor Party,International Religious	Nigeria	Make statement	010	0	Government (Nigeria)	Government	Nigeria	49101304	1	All Africa			Katsina State	Nigeria	12.25	7.5
34077550	2019-03-11	Nigeria		Nigeria	Praise or endorse	051	3.4	Muhammadu Buhari	Ideological,Center Left,Government,Elite,Parties,International Ethnic,(National) Major Party,Far Right,Muslim,Fulani / Fulbe,Executive,Executive Office,(National) Minor Party,International Religious	Nigeria	49101304	2	All Africa			Katsina State	Nigeria	12.25	7.5
34077507	2019-03-11	Citizen (Algeria)	Social,General Population / Civilian / Social	Algeria	Demonstrate or rally	141	-6.5	Abdelaziz Bouteflika	Ideological,Parties,Government,Far Left,(National) Major Party,Elite,Executive Office,Executive	Algeria	49101309	5	All Africa	Algiers		Wilaya d' Alger	Algeria	36.7525	3.04197
34077490	2019-03-11	Marcelo Rebelo de Sousa	Executive,Elite,Executive Office,Government	Portugal	Make a visit	042	1.9	Angola		Angola	49101311	2	All Africa	Luanda		Luanda Province	Angola	-8.83682	13.2343
34077491	2019-03-11	Angola		Angola	Host a visit	043	2.8	Marcelo Rebelo de Sousa	Executive,Elite,Executive Office,Government	Portugal	49101311	2	All Africa	Luanda		Luanda Province	Angola	-8.83682	13.2343
34077572	2019-03-11	Citizen (Malawi)	General Population / Civilian / Social,Social	Malawi	Obstruct passage, block	144	-7.5	Malawi		Malawi	49101314	3	All Africa	Lilongwe	Lilongwe District	Central Region	Malawi	-13.9669	33.7873
34077563	2019-03-11	Chun Doo Hwan	Elite	South Korea	Make statement	010	0	Priest (South Korea)	Social,National Religious	South Korea	49101318	5	Yonhap English News			Gwangju	South Korea	35.1667	126.917
34077556	2019-03-11	Health Ministry (South Korea)	Health Ministry,Executive,Government	South Korea	Make statement	010	0	Government (South Korea)	Government	South Korea	49101319	2	Yonhap English News	Seoul		Seoul-teukbyeolsi	South Korea	37.5683	126.978
34077478	2019-03-11	Malaysia		Malaysia	Ease administrative sanctions	081	5	Women (Indonesia)	Social,General Population / Civilian / Social	Indonesia	49101322	2	EFE News Service	Bangkok		Krung Thep Mahanakhon	Thailand	13.754	100.501
34077534	2019-03-11	Malaysia		Malaysia	Ease administrative sanctions	081	5	Women (Indonesia)	Social,General Population / Civilian / Social	Indonesia	49101323	3	EFE News Service	Bangkok		Krung Thep Mahanakhon	Thailand	13.754	100.501
34077479	2019-03-11	Thailand		Thailand	Consult	040	1	Laos		Laos	49101325	3	EFE News Service	Bangkok		Krung Thep Mahanakhon	Thailand	13.754	100.501
34077480	2019-03-11	Myanmar		Myanmar	Consult	040	1	Laos		Laos	49101325	3	EFE News Service	Bangkok		Krung Thep Mahanakhon	Thailand	13.754	100.501
34077481	2019-03-11	Laos		Laos	Consult	040	1	Thailand		Thailand	49101325	3	EFE News Service	Bangkok		Krung Thep Mahanakhon	Thailand	13.754	100.501
34077482	2019-03-11	Myanmar		Myanmar	Consult	040	1	Thailand		Thailand	49101325	3	EFE News Service	Bangkok		Krung Thep Mahanakhon	Thailand	13.754	100.501
34077483	2019-03-11	Laos		Laos	Consult	040	1	Myanmar		Myanmar	49101325	3	EFE News Service	Bangkok		Krung Thep Mahanakhon	Thailand	13.754	100.501
34077484	2019-03-11	Thailand		Thailand	Consult	040	1	Myanmar		Myanmar	49101325	3	EFE News Service	Bangkok		Krung Thep Mahanakhon	Thailand	13.754	100.501
34077562	2019-03-11	Malaysia		Malaysia	Ease administrative sanctions	081	5	Women (Indonesia)	Social,General Population / Civilian / Social	Indonesia	49101328	1	Vietnam News Agency Bulletin				Indonesia	-6.21462	106.845
34077561	2019-03-11	Lawyer/Attorney (Malaysia)	Legal,Social	Malaysia	Make an appeal or request	020	3	Women (Malaysia)	Social,General Population / Civilian / Social	Malaysia	49101328	4	Vietnam News Agency Bulletin	Kuala Lumpur		Kuala Lumpur	Malaysia	3.1412	101.687
34077565	2019-03-11	Mehbooba Mufti	Legislative / Parliamentary,Local,Government,Provincial	India	Make statement	010	0	Militant (Pakistan)	Unidentified Forces	Pakistan	49101331	2	Reuters News	Jammu		State of Jammu and Kashmir	India	32.7357	74.8691
34077528	2019-03-11	Foreign Affairs (North Korea)	Executive,Government,Foreign Ministry	North Korea	Express intent to meet or negotiate	036	4	Russia		Russian Federation	49101334	2	Interfax News Service	Pyongyang		P'yongyang-si	North Korea	39.0339	125.754
34077529	2019-03-11	Igor Morgulov	Executive,Government,Foreign Ministry	Russian Federation	Express intent to meet or negotiate	036	4	Foreign Affairs (North Korea)	Executive,Government,Foreign Ministry	North Korea	49101334	6	Interfax News Service	Vladivostok		Primorskiy Kray	Russian Federation	43.1056	131.874
34077530	2019-03-11	Foreign Affairs (North Korea)	Executive,Government,Foreign Ministry	North Korea	Express intent to meet or negotiate	036	4	Igor Morgulov	Executive,Government,Foreign Ministry	Russian Federation	49101334	6	Interfax News Service	Vladivostok		Primorskiy Kray	Russian Federation	43.1056	131.874
34077536	2019-03-11	Moon Jae-in	Executive,Government,Executive Office	South Korea	Make a visit	042	1.9	Brunei		Brunei	49101340	2	Yonhap English News	Bandar Seri Begawan		Brunei and Muara District	Brunei	4.94029	114.948
34077538	2019-03-11	Brunei		Brunei	Host a visit	043	2.8	Moon Jae-in	Executive,Government,Executive Office	South Korea	49101340	2	Yonhap English News	Bandar Seri Begawan		Brunei and Muara District	Brunei	4.94029	114.948
34077537	2019-03-11	Moon Jae-in	Executive,Government,Executive Office	South Korea	Make a visit	042	1.9	Brunei		Brunei	49101340	3	Yonhap English News	Bandar Seri Begawan		Brunei and Muara District	Brunei	4.94029	114.948
34077539	2019-03-11	Brunei		Brunei	Host a visit	043	2.8	Moon Jae-in	Executive,Government,Executive Office	South Korea	49101340	3	Yonhap English News	Bandar Seri Begawan		Brunei and Muara District	Brunei	4.94029	114.948
34077485	2019-03-11	Hassan Rouhani	Ideological,Executive Office,Government Religious,Executive,Far Right,Defense / Security Ministry,Elite,(National) Major Party,Parties,Government	Iran	Make a visit	042	1.9	Iraq		Iraq	49101342	1	Trend News Agency (Azerbaijan)				Iraq	33.3406	44.4009
34077486	2019-03-11	Iraq		Iraq	Host a visit	043	2.8	Hassan Rouhani	Ideological,Executive Office,Government Religious,Executive,Far Right,Defense / Security Ministry,Elite,(National) Major Party,Parties,Government	Iran	49101342	1	Trend News Agency (Azerbaijan)				Iraq	33.3406	44.4009
34077541	2019-03-11	Bashar al-Assad	Ideological,Executive Office,Executive,Parties,(National) Major Party,National Ethnic,Far Right,Shia,Government,National Ethnic Minority,Social,National Religious,International Religious,Religious Minority	Syria	Consult	040	1	Foreign Affairs (China)	Government,Foreign Ministry,Executive	China	49101343	3	Trend News Agency (Azerbaijan)	Damascus		Dimashq	Syria	33.5102	36.2913
34077542	2019-03-11	Foreign Affairs (China)	Government,Foreign Ministry,Executive	China	Consult	040	1	Bashar al-Assad	Ideological,Executive Office,Executive,Parties,(National) Major Party,National Ethnic,Far Right,Shia,Government,National Ethnic Minority,Social,National Religious,International Religious,Religious Minority	Syria	49101343	3	Trend News Agency (Azerbaijan)	Damascus		Dimashq	Syria	33.5102	36.2913
34077552	2019-03-11	Hassan Rouhani	Ideological,Executive Office,Government Religious,Executive,Far Right,Defense / Security Ministry,Elite,(National) Major Party,Parties,Government	Iran	Make a visit	042	1.9	Iraq		Iraq	49101344	1	The Toronto Star	Baghdad		Muhafazat Baghdad	Iraq	33.3406	44.4009
34077553	2019-03-11	Iraq		Iraq	Host a visit	043	2.8	Hassan Rouhani	Ideological,Executive Office,Government Religious,Executive,Far Right,Defense / Security Ministry,Elite,(National) Major Party,Parties,Government	Iran	49101344	1	The Toronto Star	Baghdad		Muhafazat Baghdad	Iraq	33.3406	44.4009
34077551	2019-03-11	Citizen (Iraq)	General Population / Civilian / Social,Social	Iraq	Express intent to meet or negotiate	036	4	Iraq		Iraq	49101344	5	The Toronto Star	Baghdad		Muhafazat Baghdad	Iraq	33.3406	44.4009
34077531	2019-03-11	Hassan Rouhani	Ideological,Executive Office,Government Religious,Executive,Far Right,Defense / Security Ministry,Elite,(National) Major Party,Parties,Government	Iran	Make a visit	042	1.9	Iraq		Iraq	49101348	1	Reuters News	Baghdad		Muhafazat Baghdad	Iraq	33.3406	44.4009
34077532	2019-03-11	Iraq		Iraq	Host a visit	043	2.8	Hassan Rouhani	Ideological,Executive Office,Government Religious,Executive,Far Right,Defense / Security Ministry,Elite,(National) Major Party,Parties,Government	Iran	49101348	1	Reuters News	Baghdad		Muhafazat Baghdad	Iraq	33.3406	44.4009
34077463	2019-03-11	Lawmaker (United Kingdom)	Legislative / Parliamentary,Government	United Kingdom	Make an appeal or request	020	3	Theresa May	Center Right,Ideological,Executive,Government,Executive Office,Elite,(National) Major Party,Parties	United Kingdom	49101349	1	Reuters News	London	Greater London	England	United Kingdom	51.5085	-0.12574
34077505	2019-03-11	Police (Thailand)	Government,Police	Thailand	Make statement	010	0	Nurse (Thailand)	Medical / Health NGOs,Nongovernmental Organizations / Activists	Thailand	49101352	2	Bangkok Post	Phak Hai		Changwat Phra Nakhon Si Ayutthaya	Thailand	14.4574	100.37
34077506	2019-03-11	Thailand		Thailand	Arrest, detain, or charge with legal action	173	-5	Nurse (Thailand)	Medical / Health NGOs,Nongovernmental Organizations / Activists	Thailand	49101352	2	Bangkok Post	Phak Hai		Changwat Phra Nakhon Si Ayutthaya	Thailand	14.4574	100.37
34077502	2019-03-11	Women (Indonesia)	Social,General Population / Civilian / Social	Indonesia	Use unconventional violence	180	-9	Citizen (Malaysia)	Social,General Population / Civilian / Social	Malaysia	49101353	1	Al Jazeera English	Kuala Lumpur		Kuala Lumpur	Malaysia	3.1412	101.687
34077543	2019-03-11	Head of Government (Malawi)	Executive Office,Government,Executive	Malawi	Make statement	010	0	Government (Malawi)	Government	Malawi	49101355	1	All Africa	Rumphi	Rumphi District	Northern Region	Malawi	-11.0186	33.8575
34077544	2019-03-11	Party President (Malawi)	Parties	Malawi	Make statement	010	0	Government (Malawi)	Government	Malawi	49101355	1	All Africa	Rumphi	Rumphi District	Northern Region	Malawi	-11.0186	33.8575
34077545	2019-03-11	Party President (Malawi)	Parties	Malawi	Make statement	010	0	Head of Government (Malawi)	Executive Office,Government,Executive	Malawi	49101355	5	All Africa	Rumphi	Rumphi District	Northern Region	Malawi	-11.0186	33.8575
34077527	2019-03-11	Nigerian Army	Military,Government,Army	Nigeria	Accuse	112	-2	Party Member (Nigeria)	Parties	Nigeria	49101356	4	All Africa			Rivers State	Nigeria	4.74974	6.82766
34077526	2019-03-11	Civic Group (Nigeria)	Nongovernmental Organizations / Activists,Nongovernmental Organization (International)	Nigeria	Criticize or denounce	111	-2	Military (Nigeria)	Military,Government	Nigeria	49101356	5	All Africa			Rivers State	Nigeria	4.74974	6.82766
34077557	2019-03-11	Criminal (Nigeria)	Dissident,Criminals / Gangs	Nigeria	Use unconventional violence	180	-9	Nigeria		Nigeria	49101358	5	All Africa	Bauchi		Bauchi State	Nigeria	10.3134	9.84327
34077582	2019-03-11	Representatives (Slovakia)	Government,Legislative / Parliamentary	Slovakia	Appeal for diplomatic cooperation (such as policy support)	022	3.4	Citizen (Slovakia)	General Population / Civilian / Social,Social	Slovakia	49101454	1	TASR - Tlacova Agentura Slovenskej Republiky	Bratislava		Bratislavsky kraj	Slovakia	48.1482	17.1067
34077605	2019-03-11	Ministry (Singapore)	Government	Singapore	Make an appeal or request	020	3	Japan		Japan	49101455	2	Straits Times	Tokyo		Tokyo-to	Japan	35.6895	139.692
34077606	2019-03-11	Citizen (Japan)	Social,General Population / Civilian / Social	Japan	Express intent to meet or negotiate	036	4	Justice Department/Ministery (Japan)	Government,Judicial	Japan	49101455	5	Straits Times	Nagoya		Aichi-ken	Japan	35.1815	136.906
34077607	2019-03-11	Citizen (Japan)	Social,General Population / Civilian / Social	Japan	Express intent to meet or negotiate	036	4	Business (Japan)	Business,Social	Japan	49101455	5	Straits Times	Nagoya		Aichi-ken	Japan	35.1815	136.906
34077740	2019-03-11	Protester (Algeria)	Dissident,Protestors / Popular Opposition / Mobs	Algeria	Reject	120	-4	Abdelaziz Bouteflika	Executive,Executive Office,Government,Parties,(National) Major Party,Elite,Far Left,Ideological	Algeria	49101458	6	Reuters News				Algeria	36.7525	3.04197
34077732	2019-03-11	Protester (Algeria)	Dissident,Protestors / Popular Opposition / Mobs	Algeria	Reject	120	-4	Abdelaziz Bouteflika	Executive,Executive Office,Government,Parties,(National) Major Party,Elite,Far Left,Ideological	Algeria	49101459	4	Reuters News	Algiers		Wilaya d' Alger	Algeria	36.7525	3.04197
34077747	2019-03-11	Centre Party (Estonia)	Parties	Estonia	Express intent to meet or negotiate	036	4	Citizen (Estonia)	Social,General Population / Civilian / Social	Estonia	49101462	1	Baltic Daily	Tallinn	Tallinna linn	Harjumaa	Estonia	59.437	24.7535
34077748	2019-03-11	Estonia		Estonia	Express intent to meet or negotiate	036	4	Citizen (Estonia)	Social,General Population / Civilian / Social	Estonia	49101462	2	Baltic Daily	Tallinn	Tallinna linn	Harjumaa	Estonia	59.437	24.7535
34077579	2019-03-11	Congress (United States)	Legislative / Parliamentary,Government	United States	Consult	040	1	Head of Government (Colombia)	Government,Executive Office,Executive	Colombia	49101465	1	Associated Press Newswires			Florida	United States	28.7505	-82.5001
34077580	2019-03-11	Head of Government (Colombia)	Government,Executive Office,Executive	Colombia	Consult	040	1	Congress (United States)	Legislative / Parliamentary,Government	United States	49101465	1	Associated Press Newswires			Florida	United States	28.7505	-82.5001
34077693	2019-03-11	Michel Barnier	International Government Organization,(National) Major Party,Parties,Regional,Elite,Regional Diplomatic IGOs,Center Right,Ideological	France	Make a visit	042	1.9	European Union	International Government Organization,Regional,Regional Diplomatic IGOs		49101472	2	Agence France-Presse	London	Greater London	England	United Kingdom	51.5085	-0.12574
