Event ID	Event Date	Source Name	Source Sectors	Source Country	Event Text	CAMEO Code	Intensity	Target Name	Target Sectors	Target Country	Story ID	Sentence Number	Publisher	City	District	Province	Country	Latitude	Longitude
34013003	2019-02-11	United States		United States	Grant diplomatic recognition	054	6	Assemblies (Venezuela)	Legislative / Parliamentary,Government	Venezuela	48979816	4	The Oil Daily	Orinoco		Estado Nueva Esparta	Venezuela	10.914	-64.0283
34010719	2019-02-12	Legislature (United Kingdom)	Government,Legislative / Parliamentary	United Kingdom	Reject	120	-4	Citizen (United Kingdom)	Social,General Population / Civilian / Social	United Kingdom	48975621	3	Reuters News			Britain	United Kingdom	53.5938	-1.86823
34010042	2019-02-14	Professor (Belgium)	Education,Social	Belgium	Make statement	010	0	United Kingdom		United Kingdom	48974121	5	Al Jazeera English	Brussels	(Bruxelles-Capitale)	Bruxelles-Capitale	Belgium	50.8504	4.34878
34010155	2019-02-14	Donald Trump	Executive,Executive Office,Government	United States	Return, release person(s)	0841	7	Mexico		Mexico	48974363	1	Al Jazeera English				Mexico	19.4285	-99.1277
34010158	2019-02-14	Foreign Affairs (Cuba)	Foreign Ministry,Executive,Government	Cuba	Criticize or denounce	111	-2	United States		United States	48974448	1	La República	Estados Unidos		Provincia de Cienfuegos	Cuba	22.3333	-80.6167
34010159	2019-02-14	Foreign Affairs (Cuba)	Foreign Ministry,Executive,Government	Cuba	Criticize or denounce	111	-2	Military (United States)	Government,Military	United States	48974448	1	La República	Estados Unidos		Provincia de Cienfuegos	Cuba	22.3333	-80.6167
34010160	2019-02-14	Miguel Díaz-Canel	Executive,Executive Office,Government	Cuba	Reject	120	-4	United States		United States	48974448	5	La República			Washington D.C.	United States	38.9171	-77.0003
34010228	2019-02-14	Shin Bet	Intelligence Ministry,Government,Executive	Israel	Accuse	112	-2	Hamas	Muslim,Nongovernmental Organization (International),International Religious,(National) Major Party,Parties,Dissident	Occupied Palestinian Territory	48974520	2	Israel Faxx	Jerusalem		Jerusalem District	Israel	31.769	35.2163
34010249	2019-02-14	Israel		Israel	Use conventional military force	190	-10	Iran		Iran	48974522	2	Israel Faxx	Warsaw	Warszawa	Mazowieckie	Poland	52.2298	21.0118
34010231	2019-02-14	Benjamin Netanyahu	Elite,Foreign Ministry,Parties,Executive Office,Ideological,(National) Major Party,Government,Executive,Center Right,International Ethnic,Jews	Israel	Express intent to meet or negotiate	036	4	Russia		Russian Federation	48974523	2	Israel Faxx	Moscow		Moskva	Russian Federation	55.7522	37.6156
34010340	2019-02-14	Rahul Gandhi	Government Major Party (In Government),(National) Major Party,Parties,Government	India	Criticize or denounce	111	-2	Narendra Modi	Ideological,Nationalist,Dissident,Hindu,International Religious,Radicals / Extremists / Fundamentalists,Opposition Major Party (Out Of Government),(National) Major Party,Far Right,Elite,Parties	India	48974696	1	Hindustan Times	New Delhi		National Capital Territory of Delhi	India	28.6358	77.2244
34010375	2019-02-14	Arvind Kejriwal	Ideological,(National) Major Party,Far Left,Parties	India	Make statement	010	0	Member of the Judiciary (India)	Government,Judicial	India	48974697	1	Hindustan Times	New Delhi		National Capital Territory of Delhi	India	28.6358	77.2244
34010359	2019-02-14	Canada		Canada	Arrest, detain, or charge with legal action	173	-5	Citizen (Canada)	Social,General Population / Civilian / Social	Canada	48974786	6	The Toronto Star	Orillia		Ontario	Canada	44.6087	-79.4207
34010838	2019-02-14	Police (Malaysia)	Police,Government	Malaysia	Provide humanitarian aid	073	7.4	Citizen (Malaysia)	Social,General Population / Civilian / Social	Malaysia	48975892	1	United News of Bangladesh Limited	Maheshkhali		Chittagong	Bangladesh	21.5202	91.9695
34010858	2019-02-14	Bangladesh		Bangladesh	Make statement	010	0	Sheikh Hasina Wajed	Executive,Executive Office,Elite,Government,(National) Major Party,Parties,Government Major Party (In Government),Foreign Ministry,Interior / Home Ministry	Bangladesh	48975895	2	United News of Bangladesh Limited				Bangladesh	23.7104	90.4074
34010884	2019-02-14	Election Commission (India)	Elections Ministry,Government,Executive	India	Make an appeal or request	020	3	Citizen (India)	General Population / Civilian / Social,Social	India	48975896	1	United News of Bangladesh Limited				India	28.6358	77.2244
34010894	2019-02-14	Cabinet / Council of Ministers / Advisors (Myanmar)	Government,Cabinet,Executive	Myanmar	Make optimistic comment	013	0.4	Bangladesh		Bangladesh	48975900	1	United News of Bangladesh Limited				Bangladesh	23.7104	90.4074
34010895	2019-02-14	Cabinet / Council of Ministers / Advisors (Myanmar)	Government,Cabinet,Executive	Myanmar	Make optimistic comment	013	0.4	United States		United States	48975900	1	United News of Bangladesh Limited				United States	38.8951	-77.0364
34010910	2019-02-14	United Nations	Global Diplomatic IGOs,International Government Organization,Global		Investigate	090	-2	Women (Switzerland)	Social,General Population / Civilian / Social	Switzerland	48975908	2	United News of Bangladesh Limited	Geneve		Canton de Geneve	Switzerland	46.2022	6.14569
34010865	2019-02-14	Asaduzzaman Khan	Executive,Government,Interior / Home Ministry	Bangladesh	Make statement	010	0	Government (Bangladesh)	Government	Bangladesh	48975912	1	United News of Bangladesh Limited	Thakurgaon		Rangpur Division	Bangladesh	26.031	88.4699
34010866	2019-02-14	Reserve Personnel (Bangladesh)	Government,Military	Bangladesh	Use conventional military force	190	-10	Citizen (Bangladesh)	Social,General Population / Civilian / Social	Bangladesh	48975912	1	United News of Bangladesh Limited	Thakurgaon		Rangpur Division	Bangladesh	26.031	88.4699
34010868	2019-02-14	Police (Bangladesh)	Police,Government	Bangladesh	fight with small arms and light weapons	193	-10	Citizen (Bangladesh)	Social,General Population / Civilian / Social	Bangladesh	48975912	3	United News of Bangladesh Limited	Thakurgaon		Rangpur Division	Bangladesh	26.031	88.4699
34010867	2019-02-14	Criminal (Bangladesh)	Criminals / Gangs,Dissident	Bangladesh	Use unconventional violence	180	-9	Reserve Personnel (Bangladesh)	Government,Military	Bangladesh	48975912	4	United News of Bangladesh Limited	Thakurgaon		Rangpur Division	Bangladesh	26.031	88.4699
34011131	2019-02-14	Canada		Canada	Arrest, detain, or charge with legal action	173	-5	Education (Canada)	Social,Education	Canada	48976566	4	The Toronto Star				Canada	45.4112	-75.6981
34010035	2019-02-15	Other Authorities / Officials (Malaysia)	Government	Malaysia	Arrest, detain, or charge with legal action	173	-5	Citizen (Malaysia)	Social,General Population / Civilian / Social	Malaysia	48974035	1	Reuters News	Kuala Lumpur		Kuala Lumpur	Malaysia	3.1412	101.687
34010036	2019-02-15	Police (Malaysia)	Government,Police	Malaysia	Arrest, detain, or charge with legal action	173	-5	Citizen (Malaysia)	Social,General Population / Civilian / Social	Malaysia	48974035	3	Reuters News	Jakarta		Daerah Khusus Ibukota Jakarta	Indonesia	-6.21462	106.845
34010012	2019-02-15	Nicolás Maduro	Parties,(National) Major Party,Executive Office,Government,Cabinet,Far Left,Elite,Ideological,Executive	Venezuela	Criticize or denounce	111	-2	Donald Trump	Executive,Government,Executive Office	United States	48974046	3	Associated Press Newswires	Caracas	Municipio Libertador	Distrito Capital	Venezuela	10.488	-66.8792
34010002	2019-02-15	Sergey Viktorovich Lavrov	Cabinet,Government,Executive,Ideological,(National) Major Party,Parties,Foreign Ministry,Center Right	Russian Federation	Consult	040	1	Taro Kono	Government,Executive,Lower House,Legislative / Parliamentary,Foreign Ministry	Japan	48974049	5	ITAR Tass	Moscow		Moskva	Russian Federation	55.7522	37.6156
34010003	2019-02-15	Taro Kono	Government,Executive,Lower House,Legislative / Parliamentary,Foreign Ministry	Japan	Consult	040	1	Sergey Viktorovich Lavrov	Cabinet,Government,Executive,Ideological,(National) Major Party,Parties,Foreign Ministry,Center Right	Russian Federation	48974049	5	ITAR Tass	Tokyo		Tokyo-to	Japan	35.6895	139.692
34010001	2019-02-15	Sergey Viktorovich Lavrov	Cabinet,Government,Executive,Ideological,(National) Major Party,Parties,Foreign Ministry,Center Right	Russian Federation	Express intent to meet or negotiate	036	4	Federica Mogherini	International Government Organization,Regional,Ideological,Center Left,Parties,(National) Major Party,Regional Diplomatic IGOs	Italy	48974049	6	ITAR Tass	Moscow		Moskva	Russian Federation	55.7522	37.6156
34010054	2019-02-15	Foreign Affairs (Russia)	Government,Executive,Foreign Ministry	Russian Federation	Make statement	010	0	Russia		Russian Federation	48974050	2	ITAR Tass				Russian Federation	55.7522	37.6156
34010060	2019-02-15	Director General (India)	Government	India	Investigate	090	-2	Government (India)	Government	India	48974058	2	Hindustan Times	Mumbai	Konkan Division	State of Maharashtra	India	19.0728	72.8826
34010056	2019-02-15	Member of the Judiciary (India)	Government,Judicial	India	Praise or endorse	051	3.4	Government (India)	Government	India	48974060	6	Hindustan Times	Delhi		National Capital Territory of Delhi	India	28.6538	77.229
34010024	2019-02-15	Police (India)	Police,Government	India	Make statement	010	0	Criminal (India)	Criminals / Gangs,Dissident	India	48974061	1	Hindustan Times	Greater Noida	Meerut	State of Uttar Pradesh	India	28.4961	77.536
34010026	2019-02-15	United States		United States	Make an appeal or request	020	3	Pakistan		Pakistan	48974063	1	Hindustan Times	Jammu		State of Jammu and Kashmir	India	32.7357	74.8691
34010028	2019-02-15	United States		United States	Criticize or denounce	111	-2	Pakistan		Pakistan	48974063	1	Hindustan Times	Jammu		State of Jammu and Kashmir	India	32.7357	74.8691
34010031	2019-02-15	Jaish-e-Mohammad	Dissident,Separatists,International Dissident,International Terrorists	Pakistan	Carry out suicide bombing	1831	-10	India		India	48974063	1	Hindustan Times	Jammu		State of Jammu and Kashmir	India	32.7357	74.8691
34010029	2019-02-15	United States		United States	Criticize or denounce	111	-2	Terrorist Leader (Pakistan)	Dissident,Rebel	Pakistan	48974063	2	Hindustan Times	Jammu		State of Jammu and Kashmir	India	32.7357	74.8691
34010027	2019-02-15	United States		United States	Make an appeal or request	020	3	Pakistan		Pakistan	48974063	3	Hindustan Times	Kashmir		Punjab	Pakistan	31.3422	74.3653
34010030	2019-02-15	United States		United States	Criticize or denounce	111	-2	Pakistan		Pakistan	48974063	3	Hindustan Times	Kashmir		Punjab	Pakistan	31.3422	74.3653
34010023	2019-02-15	Cabinet / Council of Ministers / Advisors (India)	Executive,Government,Cabinet	India	Criticize or denounce	111	-2	Kiran Bedi	Opposition Major Party (Out Of Government),Parties,(National) Major Party	India	48974065	5	Indo-Asian News Service				India	28.6358	77.2244
34010047	2019-02-15	Citizen (Brazil)	Social,General Population / Civilian / Social	Brazil	Occupy territory	192	-9.5	Brazil		Brazil	48974083	2	O Globo	Alto	Pariconha	Estado de Alagoas	Brazil	-9.26667	-38.0333
34009984	2019-02-15	Justice Department/Ministery (Brazil)	Government,Judicial	Brazil	Make statement	010	0	Head of Government (Brazil)	Executive Office,Executive,Government	Brazil	48974103	6	O Globo	Pernambuco	Inaja	Estado de Pernambuco	Brazil	-8.78333	-37.7
34009989	2019-02-15	Wole Soyinka	Media,Social,Entertainment,Print Entertainment	Nigeria	Praise or endorse	051	3.4	Lawyer/Attorney (Nigeria)	Social,Legal	Nigeria	48974124	1	All Africa				Nigeria	9.17583	7.18083
34009985	2019-02-15	United Nations	International Government Organization,Global,Global Diplomatic IGOs		Criticize or denounce	111	-2	Australia		Australia	48974129	1	All Africa			Manus Island	Papua New Guinea	-2.0729	146.937
34009986	2019-02-15	Human Rights Group (Australia)	Nongovernmental Organizations / Activists,Nongovernmental Organization (International),Human Rights NGOs,Human Rights IGOs	Australia	Criticize or denounce	111	-2	Australia		Australia	48974129	1	All Africa			Manus Island	Papua New Guinea	-2.0729	146.937
34009990	2019-02-15	High Ranking Military Personnel (Philippines)	Military,Government	Philippines	Make statement	010	0	Military (Philippines)	Military,Government	Philippines	48974141	5	PNA (Philippines News Agency)		Province of Agusan del Sur	Caraga	Philippines	8.5	125.833
34009991	2019-02-15	New People's Army	Ideological,Communist,Dissident,Insurgents	Philippines	Return, release person(s)	0841	7	Militia (Philippines)	Unidentified Forces	Philippines	48974141	5	PNA (Philippines News Agency)		Province of Agusan del Sur	Caraga	Philippines	8.5	125.833
34010052	2019-02-15	Cyril Ramaphosa	Social,Elite,(National) Major Party,Far Left,Ideological,Executive,Executive Office,Parties,Management / Budget / Planning / Organization Ministry,Business,Government Major Party (In Government),Government,Consulting / Financial Services Business	South Africa	Make an appeal or request	020	3	Constitutional Court (South Africa)	Government,Judicial	South Africa	48974142	1	Cape Argus	Pretoria	City of Tshwane Metropolitan Municipality	Gauteng	South Africa	-25.7449	28.1878
34010053	2019-02-15	Member of the Judiciary (South Africa)	Government,Judicial	South Africa	Demand	100	-5	Jacob Gedleyihlekisa Zuma	Elite,(National) Major Party,International Religious,Protestant,Far Left,Ideological,Government Major Party (In Government),Parties	South Africa	48974142	2	Cape Argus	Pretoria	City of Tshwane Metropolitan Municipality	Gauteng	South Africa	-25.7449	28.1878
34010021	2019-02-15	Secret Agent (India)	Government,Military Intelligence,Military	India	Make statement	010	0	Narendra Modi	Opposition Major Party (Out Of Government),Parties,(National) Major Party,Far Right,Radicals / Extremists / Fundamentalists,Ideological,Hindu,Elite,Nationalist,International Religious,Dissident	India	48974149	4	Hindustan Times	Tral		State of Jammu and Kashmir	India	33.9277	75.1151
34010015	2019-02-15	Rajnath Singh	Opposition Major Party (Out Of Government),Parties,(National) Major Party,Executive,Government,Interior / Home Ministry,Legislative / Parliamentary	India	Make statement	010	0	India		India	48974150	1	Hindustan Times	An Najaf al Ashraf		An Najaf	Iraq	31.9892	44.3291
34010025	2019-02-15	José Mujica	Parties,Elite	Uruguay	Appeal for change in leadership	0241	-0.3	Venezuela		Venezuela	48974153	2	El Economista	Montevideo		Departamento de Montevideo	Uruguay	-34.9033	-56.1882
34009999	2019-02-15	United Kingdom		United Kingdom	Arrest, detain, or charge with legal action	173	-5	Men (United Kingdom)	General Population / Civilian / Social,Social	United Kingdom	48974154	1	Daily News				United Kingdom	51.5085	-0.12574
34010048	2019-02-15	Cyril Ramaphosa	Social,Elite,(National) Major Party,Far Left,Ideological,Executive,Executive Office,Parties,Management / Budget / Planning / Organization Ministry,Business,Government Major Party (In Government),Government,Consulting / Financial Services Business	South Africa	Make an appeal or request	020	3	Constitutional Court (South Africa)	Government,Judicial	South Africa	48974157	1	Daily News	Pretoria	City of Tshwane Metropolitan Municipality	Gauteng	South Africa	-25.7449	28.1878
34010049	2019-02-15	Member of the Judiciary (South Africa)	Government,Judicial	South Africa	Demand	100	-5	Jacob Gedleyihlekisa Zuma	Elite,(National) Major Party,International Religious,Protestant,Far Left,Ideological,Government Major Party (In Government),Parties	South Africa	48974157	2	Daily News	Pretoria	City of Tshwane Metropolitan Municipality	Gauteng	South Africa	-25.7449	28.1878
34010041	2019-02-15	Kader Asmal		South Africa	Make an appeal or request	020	3	Citizen (Africa)	Social,General Population / Civilian / Social		48974159	4	Daily News				South Africa	-25.7449	28.1878
34010004	2019-02-15	Iran		Iran	Reduce relations	160	-4	Israel		Israel	48974160	6	Daily News	Tel Aviv		Tel Aviv District	Israel	32.0809	34.7806
34010055	2019-02-15	Mosiuoa Gerard Patrick Lekota	Ideological,Catholic,Parties,(National) Major Party,International Religious,Far Left	South Africa	Accuse	112	-2	Cyril Ramaphosa	Social,Elite,(National) Major Party,Far Left,Ideological,Executive,Executive Office,Parties,Management / Budget / Planning / Organization Ministry,Business,Government Major Party (In Government),Government,Consulting / Financial Services Business	South Africa	48974163	1	Daily News				South Africa	-25.7449	28.1878
34009996	2019-02-15	South Africa		South Africa	Arrest, detain, or charge with legal action	173	-5	Criminal (South Africa)	Criminals / Gangs,Dissident	South Africa	48974180	3	Cape Times	Sandton	City of Johannesburg Metropolitan Municipality	Gauteng	South Africa	-26.0552	28.0594
34010046	2019-02-15	Nicolás Maduro	Parties,(National) Major Party,Executive Office,Government,Cabinet,Far Left,Elite,Ideological,Executive	Venezuela	Criticize or denounce	111	-2	Donald Trump	Executive,Government,Executive Office	United States	48974196	3	Associated Press Newswires	Caracas	Municipio Libertador	Distrito Capital	Venezuela	10.488	-66.8792
34010045	2019-02-15	Nicolás Maduro	Parties,(National) Major Party,Executive Office,Government,Cabinet,Far Left,Elite,Ideological,Executive	Venezuela	Make statement	010	0	United States		United States	48974196	6	Associated Press Newswires	New York City		state of New York	United States	40.7143	-74.006
34009995	2019-02-15	Donald Trump	Executive,Government,Executive Office	United States	Express intent to meet or negotiate	036	4	Kim Jong-Un	Parties,(National) Major Party,Executive Office,Government,Executive,Government Major Party (In Government),Elite	North Korea	48974204	3	Trend News Agency (Azerbaijan)	Hanoi		Thanh Pho Ha Noi	Vietnam	21.0245	105.841
34009994	2019-02-15	Mike Pompeo	Foreign Ministry,Executive,Government	United States	Make statement	010	0	Kim Jong-Un	Parties,(National) Major Party,Executive Office,Government,Executive,Government Major Party (In Government),Elite	North Korea	48974204	4	Trend News Agency (Azerbaijan)	Warsaw	Warszawa	Mazowieckie	Poland	52.2298	21.0118
34010008	2019-02-15	Military Personnel - Special (Myanmar)	Government,Military	Myanmar	Use conventional military force	190	-10	Arakan Rohingya Salvation Army	Insurgents,Dissident	Myanmar	48974205	1	Trend News Agency (Azerbaijan)			Rakhine State	Myanmar	19	94.25
34010009	2019-02-15	Arakan Rohingya Salvation Army	Insurgents,Dissident	Myanmar	Use conventional military force	190	-10	Military Personnel - Special (Myanmar)	Government,Military	Myanmar	48974205	1	Trend News Agency (Azerbaijan)			Rakhine State	Myanmar	19	94.25
34010022	2019-02-15	Iran		Iran	Reduce relations	160	-4	Israel		Israel	48974212	6	Cape Argus	Tel Aviv		Tel Aviv District	Israel	32.0809	34.7806
34010005	2019-02-15	Kader Asmal		South Africa	Make an appeal or request	020	3	Citizen (Africa)	Social,General Population / Civilian / Social		48974218	4	Cape Argus				South Africa	-25.7449	28.1878
34010040	2019-02-15	Cyril Ramaphosa	Social,Elite,(National) Major Party,Far Left,Ideological,Executive,Executive Office,Parties,Management / Budget / Planning / Organization Ministry,Business,Government Major Party (In Government),Government,Consulting / Financial Services Business	South Africa	Make statement	010	0	Tito Mboweni	Social,Heavy Industrial / Chemical Business,Multinational Corporation,Business		48974227	4	The Mercury				South Africa	-25.7449	28.1878
34010043	2019-02-15	Government (Austria)	Government	Austria	Make statement	010	0	Austria		Austria	48974236	6	KBS World News - French Edition	Vienna	Politischer Bezirk Wien (Stadt)	Wien	Austria	48.2085	16.3721
34010044	2019-02-15	Government (Austria)	Government	Austria	Praise or endorse	051	3.4	South Korea		South Korea	48974236	6	KBS World News - French Edition	Vienna	Politischer Bezirk Wien (Stadt)	Wien	Austria	48.2085	16.3721
34010034	2019-02-15	Nicolás Maduro	Parties,(National) Major Party,Executive Office,Government,Cabinet,Far Left,Elite,Ideological,Executive	Venezuela	Criticize or denounce	111	-2	Donald Trump	Executive,Government,Executive Office	United States	48974240	2	Associated Press Newswires	Caracas	Municipio Libertador	Distrito Capital	Venezuela	10.488	-66.8792
34010032	2019-02-15	Nicolás Maduro	Parties,(National) Major Party,Executive Office,Government,Cabinet,Far Left,Elite,Ideological,Executive	Venezuela	Make statement	010	0	United States		United States	48974240	5	Associated Press Newswires	New York City		state of New York	United States	40.7143	-74.006
34010033	2019-02-15	United States		United States	Express intent to meet or negotiate	036	4	Venezuela		Venezuela	48974240	6	Associated Press Newswires			Washington D.C.	United States	38.9171	-77.0003
34009992	2019-02-15	Women (Costa Rica)	Social,General Population / Civilian / Social	Costa Rica	Accuse	112	-2	Óscar Arias Sánchez	Ideological,(National) Major Party,Parties,Center Left,Elite	Costa Rica	48974241	4	Associated Press Newswires			Latin America and the Caribbean	Brazil	-8.05923	-72.5977
34009987	2019-02-15	Media Personnel (India)	Media,Social	India	Make statement	010	0	Military (India)	Government,Military	India	48974242	2	Associated Press Newswires	Srinagar		State of Jammu and Kashmir	India	34.0884	74.803
34010016	2019-02-15	Lawyer/Attorney (Myanmar)	Social,Legal	Myanmar	Criticize or denounce	111	-2	Military (Myanmar)	Government,Military	Myanmar	48974246	4	Al Jazeera English	Yangon		Yangon Region	Myanmar	16.8053	96.1561
34009988	2019-02-15	Customs Official (Vietnam)	Government	Vietnam	Arrest, detain, or charge with legal action	173	-5	Citizen (Vietnam)	General Population / Civilian / Social,Social	Vietnam	48974247	5	Al Jazeera English	Ho Chi Minh City		Ho Chi Minh City	Vietnam	10.823	106.63
34010038	2019-02-15	Scott Morrison	Executive,Opposition Major Party (Out Of Government),(National) Major Party,Parties,Government,Finance / Economy / Commerce / Trade Ministry,Lower House,Legislative / Parliamentary	Australia	Consult	040	1	Company - Owner or Operator (Australia)	Social,Business	Australia	48974248	2	Australian Broadcasting Corporation (ABC) News	Cloncurry	Cloncurry	State of Queensland	Australia	-20.7072	140.513
34010039	2019-02-15	Company - Owner or Operator (Australia)	Social,Business	Australia	Consult	040	1	Scott Morrison	Executive,Opposition Major Party (Out Of Government),(National) Major Party,Parties,Government,Finance / Economy / Commerce / Trade Ministry,Lower House,Legislative / Parliamentary	Australia	48974248	2	Australian Broadcasting Corporation (ABC) News	Cloncurry	Cloncurry	State of Queensland	Australia	-20.7072	140.513
34009997	2019-02-15	Court Judge (Japan)	Government,Judicial	Japan	Reject	120	-4	Citizen (Japan)	General Population / Civilian / Social,Social	Japan	48974250	1	Australian Broadcasting Corporation (ABC) News			Northern Territory	Australia	-20	134
34009998	2019-02-15	Court Judge (Japan)	Government,Judicial	Japan	Reject	120	-4	Citizen (Japan)	General Population / Civilian / Social,Social	Japan	48974250	2	Australian Broadcasting Corporation (ABC) News			Northern Territory	Australia	-20	134
34010019	2019-02-15	Lawyer/Attorney (Australia)	Social,Legal	Australia	Share intelligence or information	064	7	Police (Australia)	Police,Government	Australia	48974253	6	Australian Associated Press			State of Victoria	Australia	-37	145
34010020	2019-02-15	Police (Australia)	Police,Government	Australia	Demand	100	-5	Lawyer/Attorney (Australia)	Social,Legal	Australia	48974253	6	Australian Associated Press			State of Victoria	Australia	-37	145
34010000	2019-02-15	Police (Australia)	Police,Government	Australia	Confiscate property	1711	-9.2	Australia		Australia	48974254	2	Australian Associated Press	Melbourne	Melbourne	State of Victoria	Australia	-37.814	144.963
34010013	2019-02-15	Other Authorities / Officials (Turkey)	Government	Turkey	Expel or deport individuals	174	-5	Citizen (Australia)	General Population / Civilian / Social,Social	Australia	48974255	5	Australian Associated Press	Bass Hill	Bankstown	State of New South Wales	Australia	-33.8986	150.995
34010114	2019-02-15	Traian Basescu	Ideological,Center Right,(National) Major Party,Parties,Elite	Romania	Make statement	010	0	Intelligence (Romania)	Government,Intelligence Ministry,Executive	Romania	48974317	1	AGERPRES	Bucharest	Municipiul Bucuresti	Bucuresti	Romania	44.4323	26.1063
34010133	2019-02-15	Political Parties (Latvia)	Parties	Latvia	Praise or endorse	051	3.4	Presidential Candidate (Latvia)	Parties	Latvia	48974318	1	Latvian News Agency	Riga		Riga	Latvia	56.946	24.1059
34010111	2019-02-15	India		India	Engage in material cooperation	060	6	Pakistan		Pakistan	48974324	5	Hindustan Times	Kargil		State of Jammu and Kashmir	India	34.5576	76.1262
34010117	2019-02-15	Political Parties (Latvia)	Parties	Latvia	Praise or endorse	051	3.4	Presidential Candidate (Latvia)	Parties	Latvia	48974327	1	Baltic Daily	Riga		Riga	Latvia	56.946	24.1059
34010115	2019-02-15	Military Personnel (South Korea)	Government,Military	South Korea	Make statement	010	0	U.S. Forces Korea	Government,Military	United States	48974330	6	Yonhap English News	Seoul		Seoul-teukbyeolsi	South Korea	37.5683	126.978
34010123	2019-02-15	Mike Pompeo	Foreign Ministry,Executive,Government	United States	Engage in negotiation	046	7	Kang Kyung Wha	Government,Foreign Ministry,Finance / Economy / Commerce / Trade Ministry,Executive	South Korea	48974333	1	Xinhua News Agency	Warsaw	Warszawa	Mazowieckie	Poland	52.2298	21.0118
34010124	2019-02-15	Kang Kyung Wha	Government,Foreign Ministry,Finance / Economy / Commerce / Trade Ministry,Executive	South Korea	Engage in negotiation	046	7	Mike Pompeo	Foreign Ministry,Executive,Government	United States	48974333	1	Xinhua News Agency	Warsaw	Warszawa	Mazowieckie	Poland	52.2298	21.0118
34010118	2019-02-15	Kang Kyung Wha	Government,Foreign Ministry,Finance / Economy / Commerce / Trade Ministry,Executive	South Korea	Make statement	010	0	Mike Pompeo	Foreign Ministry,Executive,Government	United States	48974333	2	Xinhua News Agency	Warsaw	Warszawa	Mazowieckie	Poland	52.2298	21.0118
34010119	2019-02-15	Mike Pompeo	Foreign Ministry,Executive,Government	United States	Make statement	010	0	Kang Kyung Wha	Government,Foreign Ministry,Finance / Economy / Commerce / Trade Ministry,Executive	South Korea	48974333	2	Xinhua News Agency	Warsaw	Warszawa	Mazowieckie	Poland	52.2298	21.0118
34010120	2019-02-15	Mike Pompeo	Foreign Ministry,Executive,Government	United States	Consult	040	1	Kang Kyung Wha	Government,Foreign Ministry,Finance / Economy / Commerce / Trade Ministry,Executive	South Korea	48974333	2	Xinhua News Agency	Warsaw	Warszawa	Mazowieckie	Poland	52.2298	21.0118
34010121	2019-02-15	Kang Kyung Wha	Government,Foreign Ministry,Finance / Economy / Commerce / Trade Ministry,Executive	South Korea	Consult	040	1	Mike Pompeo	Foreign Ministry,Executive,Government	United States	48974333	2	Xinhua News Agency	Warsaw	Warszawa	Mazowieckie	Poland	52.2298	21.0118
34010122	2019-02-15	United States		United States	Make a visit	042	1.9	North Korea		North Korea	48974333	5	Xinhua News Agency	Pyongyang		P'yongyang-si	North Korea	39.0339	125.754
34010125	2019-02-15	North Korea		North Korea	Host a visit	043	2.8	United States		United States	48974333	5	Xinhua News Agency	Pyongyang		P'yongyang-si	North Korea	39.0339	125.754
34010130	2019-02-15	Human Rights Group (Philippines)	Nongovernmental Organization (International),Nongovernmental Organizations / Activists,Human Rights IGOs,Human Rights NGOs	Philippines	Praise or endorse	051	3.4	Media Personnel (Philippines)	Media,Social	Philippines	48974334	4	The Washington Post	Manila	City of Manila	National Capital Region	Philippines	14.6042	120.982
34010080	2019-02-15	Federal Bureau of Investigation	Justice / Law Ministry,Executive,Government	United States	Investigate	090	-2	Head of Government (Russia)	Government,Executive Office,Executive	Russian Federation	48974344	3	The Washington Post				Russian Federation	55.7522	37.6156
34010098	2019-02-15	Government (Nepal)	Government	Nepal	Make optimistic comment	013	0.4	Citizen (Nepal)	General Population / Civilian / Social,Social	Nepal	48974348	1	Nepali Times	Kathmandu	Bagmati Zone	Madhyamanchal	Nepal	27.7017	85.3206
34010157	2019-02-15	Myanmar		Myanmar	Coerce	170	-7	Men (Myanmar)	Social,General Population / Civilian / Social	Myanmar	48974355	1	Associated Press Newswires	Yangon		Yangon Region	Myanmar	16.8053	96.1561
34010153	2019-02-15	Nasir El-Rufai	(National) Major Party,Parties	Nigeria	Use conventional military force	190	-10	Nigeria		Nigeria	48974365	1	All Africa			Kaduna State	Nigeria	10.3333	7.75
34010150	2019-02-15	Muhammadu Buhari	Fulani / Fulbe,Ideological,Executive Office,International Ethnic,Executive,Far Right,(National) Minor Party,Muslim,(National) Major Party,Parties,Government,Elite,International Religious,Center Left	Nigeria	Express intent to cooperate	030	4	Indigenous People (Nigeria)	Social,General Population / Civilian / Social	Nigeria	48974365	2	All Africa			Kaduna State	Nigeria	10.3333	7.75
34010151	2019-02-15	Citizen (Nigeria)	Social,General Population / Civilian / Social	Nigeria	Criticize or denounce	111	-2	Governor (Nigeria)	Provincial,Government,Local	Nigeria	48974365	5	All Africa	Kaduna		Kaduna State	Nigeria	10.5222	7.43828
34010152	2019-02-15	People Associated with the Opposition (Nigeria)	Dissident,Protestors / Popular Opposition / Mobs	Nigeria	Criticize or denounce	111	-2	Governor (Nigeria)	Provincial,Government,Local	Nigeria	48974365	5	All Africa	Kaduna		Kaduna State	Nigeria	10.5222	7.43828
34010085	2019-02-15	Muhammadu Buhari	Fulani / Fulbe,Ideological,Executive Office,International Ethnic,Executive,Far Right,(National) Minor Party,Muslim,(National) Major Party,Parties,Government,Elite,International Religious,Center Left	Nigeria	Praise or endorse	051	3.4	Bill Clinton	(National) Major Party,Parties,Ideological,Center Left	United States	48974369	1	All Africa				Nigeria	9.17583	7.18083
34010113	2019-02-15	Muhammadu Buhari	Fulani / Fulbe,Ideological,Executive Office,International Ethnic,Executive,Far Right,(National) Minor Party,Muslim,(National) Major Party,Parties,Government,Elite,International Religious,Center Left	Nigeria	Express intent to cooperate	030	4	Citizen (Nigeria)	Social,General Population / Civilian / Social	Nigeria	48974373	2	All Africa				Nigeria	9.17583	7.18083
34010112	2019-02-15	Muhammadu Buhari	Fulani / Fulbe,Ideological,Executive Office,International Ethnic,Executive,Far Right,(National) Minor Party,Muslim,(National) Major Party,Parties,Government,Elite,International Religious,Center Left	Nigeria	Make an appeal or request	020	3	Children (Nigeria)	Social,General Population / Civilian / Social	Nigeria	48974373	4	All Africa				Nigeria	9.17583	7.18083
34010156	2019-02-15	Employee (Kenya)	Labor,Social	Kenya	Demonstrate or rally	141	-6.5	Unspecified Actor	Unspecified		48974375	1	All Africa				Kenya	-1.29	36.82
34010090	2019-02-15	Muhammadu Buhari	Fulani / Fulbe,Ideological,Executive Office,International Ethnic,Executive,Far Right,(National) Minor Party,Muslim,(National) Major Party,Parties,Government,Elite,International Religious,Center Left	Nigeria	Reduce relations	160	-4	Citizen (Nigeria)	Social,General Population / Civilian / Social	Nigeria	48974376	1	All Africa	Abuja		Federal Capital Territory	Nigeria	9.05785	7.49508
34010089	2019-02-15	Muhammadu Buhari	Fulani / Fulbe,Ideological,Executive Office,International Ethnic,Executive,Far Right,(National) Minor Party,Muslim,(National) Major Party,Parties,Government,Elite,International Religious,Center Left	Nigeria	Make an appeal or request	020	3	Citizen (Nigeria)	Social,General Population / Civilian / Social	Nigeria	48974376	6	All Africa	Abuja		Federal Capital Territory	Nigeria	9.05785	7.49508
34010062	2019-02-15	Muhammadu Buhari	Fulani / Fulbe,Ideological,Executive Office,International Ethnic,Executive,Far Right,(National) Minor Party,Muslim,(National) Major Party,Parties,Government,Elite,International Religious,Center Left	Nigeria	Make an appeal or request	020	3	Citizen (Nigeria)	Social,General Population / Civilian / Social	Nigeria	48974378	1	All Africa				Nigeria	9.17583	7.18083
34010063	2019-02-15	Muhammadu Buhari	Fulani / Fulbe,Ideological,Executive Office,International Ethnic,Executive,Far Right,(National) Minor Party,Muslim,(National) Major Party,Parties,Government,Elite,International Religious,Center Left	Nigeria	Express intent to cooperate	030	4	Citizen (Nigeria)	Social,General Population / Civilian / Social	Nigeria	48974378	3	All Africa				Nigeria	9.17583	7.18083
34010095	2019-02-15	Defense Attorney (Kenya)	Judicial,Government	Kenya	Make statement	010	0	Okoth Obado	Local,Provincial,Government	Kenya	48974382	2	All Africa	Sagana		Kirinyaga District	Kenya	-0.66667	37.2
34010087	2019-02-15	Party Member (Nigeria)	Parties	Nigeria	Consult	040	1	Indigenous People (Nigeria)	Social,General Population / Civilian / Social	Nigeria	48974383	2	All Africa	Lagos		Lagos State	Nigeria	6.45306	3.39583
34010088	2019-02-15	Indigenous People (Nigeria)	Social,General Population / Civilian / Social	Nigeria	Consult	040	1	Party Member (Nigeria)	Parties	Nigeria	48974383	2	All Africa	Lagos		Lagos State	Nigeria	6.45306	3.39583
34010069	2019-02-15	National Police Service	National / Border Divisions,Police,Executive,Government,Interior / Home Ministry	Bulgaria	Express intent to cooperate	030	4	Nurse (Kenya)	Nongovernmental Organizations / Activists,Medical / Health NGOs	Kenya	48974384	1	All Africa				Bulgaria	42.6975	23.3242
34010096	2019-02-15	Jaish-e-Mohammad	International Dissident,International Terrorists,Dissident,Separatists	Pakistan	Acknowledge or claim responsibility	015	0	Indian Administered Kashmir		India	48974388	3	Australian Associated Press	Kashmir		Punjab	Pakistan	31.3422	74.3653
34010097	2019-02-15	Jaish-e-Mohammad	International Dissident,International Terrorists,Dissident,Separatists	Pakistan	Use conventional military force	190	-10	Indian Administered Kashmir		India	48974388	3	Australian Associated Press	Jammu		State of Jammu and Kashmir	India	32.7357	74.8691
34010131	2019-02-15	United States		United States	Express intent to provide military protection or peacekeeping	0334	6	Venezuela		Venezuela	48974390	1	Xinhua News Agency	Havana		Provincia de La Habana	Cuba	23.133	-82.383
34010132	2019-02-15	Government (Cuba)	Government	Cuba	Criticize or denounce	111	-2	United States		United States	48974390	1	Xinhua News Agency	Havana		Provincia de La Habana	Cuba	23.133	-82.383
34010100	2019-02-15	Conservative Party (United Kingdom)	Parties	United Kingdom	Reject	120	-4	Government (United Kingdom)	Government	United Kingdom	48974397	3	The Washington Post	London	Greater London	England	United Kingdom	51.5085	-0.12574
34010138	2019-02-15	India		India	Accuse	112	-2	Pakistan		Pakistan	48974398	5	The Washington Post	Kashmir		Punjab	Pakistan	31.3422	74.3653
34010141	2019-02-15	Boeing	Science / Tech / Knowledge / Innovation Business,Business,Social	United States	Demand	100	-5	Citizen (Belgium)	General Population / Civilian / Social,Social	Belgium	48974409	2	The Washington Post	Brussels	(Bruxelles-Capitale)	Bruxelles-Capitale	Belgium	50.8504	4.34878
34010094	2019-02-15	Donald Trump	Executive,Executive Office,Government	United States	Make statement	010	0	Communist Party (China)	Ideological,Communist,Parties	China	48974416	5	The Washington Post	National University	San Diego County	California	United States	32.7775	-117.106
34010074	2019-02-15	Russia		Russian Federation	Express intent to cooperate	030	4	Turkey		Turkey	48974419	1	The Washington Post	Moscow		Moskva	Russian Federation	55.7522	37.6156
34010075	2019-02-15	Iran		Iran	Express intent to cooperate	030	4	Turkey		Turkey	48974419	1	The Washington Post	Moscow		Moskva	Russian Federation	55.7522	37.6156
34010076	2019-02-15	Turkey		Turkey	Express intent to cooperate	030	4	Russia		Russian Federation	48974419	1	The Washington Post	Moscow		Moskva	Russian Federation	55.7522	37.6156
34010077	2019-02-15	Iran		Iran	Express intent to cooperate	030	4	Russia		Russian Federation	48974419	1	The Washington Post	Moscow		Moskva	Russian Federation	55.7522	37.6156
34010078	2019-02-15	Turkey		Turkey	Express intent to cooperate	030	4	Iran		Iran	48974419	1	The Washington Post	Moscow		Moskva	Russian Federation	55.7522	37.6156
34010079	2019-02-15	Russia		Russian Federation	Express intent to cooperate	030	4	Iran		Iran	48974419	1	The Washington Post	Moscow		Moskva	Russian Federation	55.7522	37.6156
34010073	2019-02-15	Russia		Russian Federation	Make statement	010	0	Iran		Iran	48974419	6	The Washington Post	Astana		Astana Qalasy	Kazakhstan	51.1801	71.446
34010134	2019-02-15	United States		United States	Cooperate economically	061	6.4	Taiwan		Taiwan	48974421	5	Taipei Times				Taiwan	24.947	121.582
34010135	2019-02-15	Taiwan		Taiwan	Cooperate economically	061	6.4	United States		United States	48974421	5	Taipei Times				Taiwan	24.947	121.582
34010127	2019-02-15	Democratic Progressive Party	Opposition Major Party (Out Of Government),Ideological,(National) Major Party,Nationalist,Parties,Center Left	Taiwan	Make statement	010	0	Police (Taiwan)	Police,Government	Taiwan	48974425	6	Taipei Times	Tainan	Tainan	Taiwan	Taiwan	22.9908	120.213
34010108	2019-02-15	Government (Japan)	Government	Japan	Make an appeal or request	020	3	Taiwan		Taiwan	48974428	1	Taipei Times	Taipei		Taipei	Taiwan	25.0478	121.532
34010109	2019-02-15	Government (Japan)	Government	Japan	Praise or endorse	051	3.4	Taiwan		Taiwan	48974428	1	Taipei Times	Taipei		Taipei	Taiwan	25.0478	121.532
34010106	2019-02-15	Government (Japan)	Government	Japan	Make statement	010	0	Japan		Japan	48974428	2	Taipei Times	Taipei		Taipei	Taiwan	25.0478	121.532
34010107	2019-02-15	Taro Kono	Lower House,Foreign Ministry,Legislative / Parliamentary,Government,Executive	Japan	Make statement	010	0	Taiwan		Taiwan	48974428	5	Taipei Times	Taipei		Taipei	Taiwan	25.0478	121.532
34010105	2019-02-15	Member of the Judiciary (India)	Government,Judicial	India	Praise or endorse	051	3.4	Government (India)	Government	India	48974430	2	Hindustan Times		North Delhi	National Capital Territory of Delhi	India	28.6692	77.2227
34010072	2019-02-15	India		India	Criticize or denounce	111	-2	Pakistan		Pakistan	48974431	5	Hindustan Times	Pulwama		State of Jammu and Kashmir	India	33.8741	74.8996
34010161	2019-02-15	Ravi Shankar Prasad	Government,(National) Major Party,Opposition Major Party (Out Of Government),Parties,Judicial,Legislative / Parliamentary,Media,Social	India	Make statement	010	0	Bharatiya Janata	(National) Major Party,Opposition Major Party (Out Of Government),Parties	India	48974432	1	Indo-Asian News Service	Madurai		State of Tamil Nadu	India	9.91735	78.1196
34010162	2019-02-15	Ravi Shankar Prasad	Government,(National) Major Party,Opposition Major Party (Out Of Government),Parties,Judicial,Legislative / Parliamentary,Media,Social	India	Make statement	010	0	Government (India)	Government	India	48974432	5	Indo-Asian News Service			State of Tamil Nadu	India	11	78
34010083	2019-02-15	India		India	Criticize or denounce	111	-2	Jaish-e-Mohammad	International Dissident,International Terrorists,Dissident,Separatists	Pakistan	48974433	1	Indo-Asian News Service	Kashmir		Punjab	Pakistan	31.3422	74.3653
34010082	2019-02-15	Vladimir Putin	Government,Ideological,Executive Office,Center Right,Executive,(National) Major Party,Parties,Elite	Russian Federation	Make statement	010	0	Russia		Russian Federation	48974433	5	Indo-Asian News Service	Kashmir		Punjab	Pakistan	31.3422	74.3653
34010139	2019-02-15	United States		United States	Consult	040	1	Xi Jinping	Government,Government Major Party (In Government),Executive Office,Unicameral,(National) Major Party,Legislative / Parliamentary,Parties,Executive,Elite,Military	China	48974437	1	Agence France-Presse	Beijing		Beijing Shi	China	39.9075	116.397
34010140	2019-02-15	Xi Jinping	Government,Government Major Party (In Government),Executive Office,Unicameral,(National) Major Party,Legislative / Parliamentary,Parties,Executive,Elite,Military	China	Consult	040	1	United States		United States	48974437	1	Agence France-Presse	Beijing		Beijing Shi	China	39.9075	116.397
34010169	2019-02-15	Yi Hae Ch'an	Ideological,(National) Major Party,Parties,Center Left	South Korea	Consult	040	1	United States		United States	48974440	2	Yonhap English News			Washington D.C.	United States	38.9171	-77.0003
34010171	2019-02-15	United States		United States	Consult	040	1	Yi Hae Ch'an	Ideological,(National) Major Party,Parties,Center Left	South Korea	48974440	2	Yonhap English News			Washington D.C.	United States	38.9171	-77.0003
34010170	2019-02-15	South Korea		South Korea	Make a visit	042	1.9	United States		United States	48974440	3	Yonhap English News			Washington D.C.	United States	38.9171	-77.0003
34010172	2019-02-15	United States		United States	Host a visit	043	2.8	South Korea		South Korea	48974440	3	Yonhap English News			Washington D.C.	United States	38.9171	-77.0003
34010167	2019-02-15	Yi Hae Ch'an	Ideological,(National) Major Party,Parties,Center Left	South Korea	Make statement	010	0	United States		United States	48974440	5	Yonhap English News	Hanoi		Thanh Pho Ha Noi	Vietnam	21.0245	105.841
34010168	2019-02-15	Yi Hae Ch'an	Ideological,(National) Major Party,Parties,Center Left	South Korea	Make statement	010	0	North Korea		North Korea	48974440	5	Yonhap English News	Hanoi		Thanh Pho Ha Noi	Vietnam	21.0245	105.841
34010128	2019-02-15	Citizen (South Korea)	Social,General Population / Civilian / Social	South Korea	Express intent to engage in diplomatic cooperation (such as policy support)	032	4.5	Other Authorities / Officials (South Korea)	Government	South Korea	48974441	3	Yonhap English News	Nis		Central Serbia	Serbia	43.3247	21.9033
34010103	2019-02-15	Ministry (Japan)	Government	Japan	Appeal to others to meet or negotiate	026	4	Education (Japan)	Education,Social	Japan	48974451	5	Jiji Press English News Service	Chiba		Chiba-ken	Japan	35.6047	140.123
34010143	2019-02-15	Governor (Japan)	Government,Provincial,Local	Japan	Express intent to meet or negotiate	036	4	Japan		Japan	48974452	2	Jiji Press English News Service	Tokyo		Tokyo-to	Japan	35.6895	139.692
34010142	2019-02-15	Governor (Japan)	Government,Provincial,Local	Japan	Make an appeal or request	020	3	Citizen (Japan)	Social,General Population / Civilian / Social	Japan	48974452	4	Jiji Press English News Service	Tokyo		Tokyo-to	Japan	35.6895	139.692
34010126	2019-02-15	Armed Gang (India)	Unidentified Forces	India	Carry out suicide bombing	1831	-10	Police (India)	Government,Police	India	48974455	2	Indo-Asian News Service	Pulwama		State of Jammu and Kashmir	India	33.8741	74.8996
34010101	2019-02-15	Nicolás Maduro	Government,Ideological,Parties,(National) Major Party,Elite,Executive,Cabinet,Executive Office,Far Left	Venezuela	Give ultimatum	139	-7	Foreign Affairs (United States)	Foreign Ministry,Executive,Government	United States	48974465	6	Al Jazeera English				United States	38.8951	-77.0364
34010102	2019-02-15	Nicolás Maduro	Government,Ideological,Parties,(National) Major Party,Elite,Executive,Cabinet,Executive Office,Far Left	Venezuela	Reduce or break diplomatic relations	161	-4	United States		United States	48974465	6	Al Jazeera English				United States	38.8951	-77.0364
34010263	2019-02-15	Labor Party (United Kingdom)	Parties,Labor,Social	United Kingdom	Express intent to engage in diplomatic cooperation (such as policy support)	032	4.5	Theresa May	Elite,Executive Office,Government,Executive,Ideological,(National) Major Party,Center Right,Parties	United Kingdom	48974515	3	Reuters News			Britain	United Kingdom	53.5938	-1.86823
34010195	2019-02-15	United States		United States	Criticize or denounce	111	-2	Terrorist Leader (Pakistan)	Dissident,Rebel	Pakistan	48974525	2	Indo-Asian News Service				Pakistan	33.7215	73.0433
34010197	2019-02-15	Terrorist Leader (Pakistan)	Dissident,Rebel	Pakistan	Use unconventional violence	180	-9	Military (India)	Military,Government	India	48974525	2	Indo-Asian News Service				India	28.6358	77.2244
34010194	2019-02-15	United States		United States	Make an appeal or request	020	3	Pakistan		Pakistan	48974525	3	Indo-Asian News Service				United States	38.8951	-77.0364
34010196	2019-02-15	United States		United States	Criticize or denounce	111	-2	Pakistan		Pakistan	48974525	3	Indo-Asian News Service				Pakistan	33.7215	73.0433
34010212	2019-02-15	Branko Bačić	Government,Transportation Ministry,Elite,Parties,(National) Major Party,Unicameral,Ideological,Center Right,Executive,Legislative / Parliamentary	Croatia	Make pessimistic comment	012	-0.4	Citizen (Croatia)	General Population / Civilian / Social,Social	Croatia	48974527	3	HINA	Zagreb		Grad Zagreb	Croatia	45.8144	15.978
34010173	2019-02-15	Mike Pompeo	Government,Executive,Foreign Ministry	United States	Consult	040	1	European Union	International Government Organization,Regional,Regional Diplomatic IGOs		48974528	1	Associated Press Newswires	Brussels	(Bruxelles-Capitale)	Bruxelles-Capitale	Belgium	50.8504	4.34878
34010178	2019-02-15	European Union	International Government Organization,Regional,Regional Diplomatic IGOs		Consult	040	1	Mike Pompeo	Government,Executive,Foreign Ministry	United States	48974528	1	Associated Press Newswires	Brussels	(Bruxelles-Capitale)	Bruxelles-Capitale	Belgium	50.8504	4.34878
34010174	2019-02-15	Mike Pence	Government,Executive,Executive Office,(National) Major Party,Parties,Provincial,Lower House,Ideological,Center Right,Legislative / Parliamentary,Local	United States	Accuse	112	-2	United Kingdom		United Kingdom	48974528	2	Associated Press Newswires			Britain	United Kingdom	53.5938	-1.86823
34010175	2019-02-15	Mike Pence	Government,Executive,Executive Office,(National) Major Party,Parties,Provincial,Lower House,Ideological,Center Right,Legislative / Parliamentary,Local	United States	Accuse	112	-2	France		France	48974528	2	Associated Press Newswires	Brussels	(Bruxelles-Capitale)	Bruxelles-Capitale	Belgium	50.8504	4.34878
34010176	2019-02-15	Mike Pence	Government,Executive,Executive Office,(National) Major Party,Parties,Provincial,Lower House,Ideological,Center Right,Legislative / Parliamentary,Local	United States	Accuse	112	-2	Germany		Germany	48974528	2	Associated Press Newswires	Brussels	(Bruxelles-Capitale)	Bruxelles-Capitale	Belgium	50.8504	4.34878
34010177	2019-02-15	Mike Pence	Government,Executive,Executive Office,(National) Major Party,Parties,Provincial,Lower House,Ideological,Center Right,Legislative / Parliamentary,Local	United States	Accuse	112	-2	European Union	International Government Organization,Regional,Regional Diplomatic IGOs		48974528	2	Associated Press Newswires	Brussels	(Bruxelles-Capitale)	Bruxelles-Capitale	Belgium	50.8504	4.34878
34010193	2019-02-15	India		India	Accuse	112	-2	Pakistan		Pakistan	48974529	1	Agence France-Presse	Kashmir		Punjab	Pakistan	31.3422	74.3653
34010192	2019-02-15	Foreign Affairs (India)	Foreign Ministry,Executive,Government	India	Make statement	010	0	Jaish-e-Mohammad	International Terrorists,International Dissident,Separatists,Dissident	Pakistan	48974529	5	Agence France-Presse			State of Jammu and Kashmir	India	33.9167	76.6667
34010198	2019-02-15	United Nations	Global,International Government Organization,Global Diplomatic IGOs		Appeal for diplomatic cooperation (such as policy support)	022	3.4	Belgium		Belgium	48974538	3	Unknown	Brussels	(Bruxelles-Capitale)	Bruxelles-Capitale	Belgium	50.8504	4.34878
34010267	2019-02-15	Media Personnel (Libya)	Social,Media	Libya	Make statement	010	0	Government (Libya)	Government	Libya	48974539	3	Unknown	Tripoli		Sha`biyat Tarabulus	Libya	32.8752	13.1875
34010215	2019-02-15	India		India	Use conventional military force	190	-10	Citizen (India)	General Population / Civilian / Social,Social	India	48974540	1	Indo-Asian News Service	Pulwama		State of Jammu and Kashmir	India	33.8741	74.8996
34010235	2019-02-15	Labor Party (Australia)	Labor,Social,Parties	Australia	Reduce relations	160	-4	Scott Morrison	(National) Major Party,Opposition Major Party (Out Of Government),Finance / Economy / Commerce / Trade Ministry,Parties,Government,Executive,Lower House,Legislative / Parliamentary	Australia	48974544	4	Agence France-Presse				Australia	-35.2835	149.128
34010234	2019-02-15	Domestic Affairs (Australia)	Executive,Interior / Home Ministry,Government	Australia	Make statement	010	0	Immigrants (Australia)	Social,General Population / Civilian / Social	Australia	48974544	5	Agence France-Presse				Australia	-35.2835	149.128
34010187	2019-02-15	Islamic State of Iraq and the Levant	Sunni,Muslim,Dissident,Insurgents,Fundamentalist,International Religious,Ideological	Iraq	Acknowledge or claim responsibility	015	0	Kashim Shettima	Provincial,Parties,(National) Major Party,Far Right,Government,Local,Ideological	Nigeria	48974546	1	All Africa			Borno State	Nigeria	11.5	13
34010188	2019-02-15	Kashim Shettima	Provincial,Parties,(National) Major Party,Far Right,Government,Local,Ideological	Nigeria	Engage in symbolic act	017	0	Citizen (Nigeria)	General Population / Civilian / Social,Social	Nigeria	48974546	6	All Africa	Maiduguri		Borno State	Nigeria	11.8464	13.1603
34010262	2019-02-15	Labor Union (Nigeria)	Labor,Social	Nigeria	Threaten	130	-4.4	Independent National Electoral Commission	Government,Elections Ministry,Executive	Nigeria	48974547	1	All Africa				Nigeria	9.17583	7.18083
34010217	2019-02-15	Muhammadu Buhari	Center Left,Executive,International Religious,Government,(National) Minor Party,Ideological,Fulani / Fulbe,International Ethnic,Elite,Muslim,Parties,(National) Major Party,Far Right,Executive Office	Nigeria	Reduce relations	160	-4	Citizen (Nigeria)	General Population / Civilian / Social,Social	Nigeria	48974548	1	All Africa	Abuja		Federal Capital Territory	Nigeria	9.05785	7.49508
34010216	2019-02-15	Muhammadu Buhari	Center Left,Executive,International Religious,Government,(National) Minor Party,Ideological,Fulani / Fulbe,International Ethnic,Elite,Muslim,Parties,(National) Major Party,Far Right,Executive Office	Nigeria	Make an appeal or request	020	3	Citizen (Nigeria)	General Population / Civilian / Social,Social	Nigeria	48974548	6	All Africa	Abuja		Federal Capital Territory	Nigeria	9.05785	7.49508
34010257	2019-02-15	Donald Trump	Government,Executive,Executive Office	United States	Praise or endorse	051	3.4	Joao Lourenco	Executive Office,Legislative / Parliamentary,Unicameral,Government,Executive,Center Left,Elite,Ideological,(National) Major Party,Parties	Angola	48974549	1	All Africa				United States	38.8951	-77.0364
34010256	2019-02-15	United States		United States	Make statement	010	0	Angola		Angola	48974549	6	All Africa				United States	38.8951	-77.0364
34010209	2019-02-15	Criminal (Angola)	Criminals / Gangs,Dissident	Angola	Sexually assault	1821	-9	Children (Angola)	Social,General Population / Civilian / Social	Angola	48974550	1	All Africa	Lubango		Huila Province	Angola	-14.9172	13.4925
34010250	2019-02-15	Singapore		Singapore	Praise or endorse	051	3.4	Combatant (Malaysia)	Unidentified Forces	Malaysia	48974556	1	Straits Times	Johor			Singapore	1.48265	103.91
34010227	2019-02-15	Lee Hsien Loong	Elite,Legislative / Parliamentary,Executive Office,Government,Executive,Government Major Party (In Government),Parties,(National) Major Party	Singapore	Make statement	010	0	Military (Singapore)	Government,Military	Singapore	48974557	5	Straits Times				Singapore	1.28967	103.85
34010190	2019-02-15	Jaish-e-Mohammad	International Terrorists,International Dissident,Separatists,Dissident	Pakistan	Acknowledge or claim responsibility	015	0	India		India	48974573	2	Indo-Asian News Service	Pulwama		State of Jammu and Kashmir	India	33.8741	74.8996
34010191	2019-02-15	Jaish-e-Mohammad	International Terrorists,International Dissident,Separatists,Dissident	Pakistan	Use conventional military force	190	-10	India		India	48974573	2	Indo-Asian News Service	Pulwama		State of Jammu and Kashmir	India	33.8741	74.8996
34010189	2019-02-15	Fred Enanga	Government,Police	Uganda	Make statement	010	0	Business (Uganda)	Business,Social	Uganda	48974576	2	Agence France-Presse				Uganda	0.31628	32.5822
34010202	2019-02-15	Donald Trump	Government,Executive,Executive Office	United States	Express intent to meet or negotiate	036	4	Kim Jong-Un	Parties,Executive,Government Major Party (In Government),Government,Executive Office,(National) Major Party,Elite	North Korea	48974577	5	Yonhap English News	Pyongyang		P'yongyang-si	North Korea	39.0339	125.754
34010203	2019-02-15	Kim Jong-Un	Parties,Executive,Government Major Party (In Government),Government,Executive Office,(National) Major Party,Elite	North Korea	Express intent to meet or negotiate	036	4	Donald Trump	Government,Executive,Executive Office	United States	48974577	5	Yonhap English News	Pyongyang		P'yongyang-si	North Korea	39.0339	125.754
34010252	2019-02-15	Kim Jong-Un	Parties,Executive,Government Major Party (In Government),Government,Executive Office,(National) Major Party,Elite	North Korea	Engage in negotiation	046	7	Donald Trump	Government,Executive,Executive Office	United States	48974578	6	Yonhap English News	Hanoi		Thanh Pho Ha Noi	Vietnam	21.0245	105.841
34010253	2019-02-15	Donald Trump	Government,Executive,Executive Office	United States	Engage in negotiation	046	7	Kim Jong-Un	Parties,Executive,Government Major Party (In Government),Government,Executive Office,(National) Major Party,Elite	North Korea	48974578	6	Yonhap English News	Hanoi		Thanh Pho Ha Noi	Vietnam	21.0245	105.841
34010199	2019-02-15	Seoul Central District Court	Judicial,Government	South Korea	Demand	100	-5	Party Member (South Korea)	Parties	South Korea	48974579	4	Yonhap English News	Seoul		Seoul-teukbyeolsi	South Korea	37.5683	126.978
34010204	2019-02-15	Recep Tayyip Erdoğan	(National) Major Party,Sunni,Elite,International Religious,Executive Office,Government,Ideological,Center Right,Executive,Parties	Turkey	Sign formal agreement	057	8	Greece		Greece	48974582	2	Trend News Agency (Azerbaijan)	Baku		Baku City	Azerbaijan	40.3777	49.892
34010205	2019-02-15	Greece		Greece	Sign formal agreement	057	8	Recep Tayyip Erdoğan	(National) Major Party,Sunni,Elite,International Religious,Executive Office,Government,Ideological,Center Right,Executive,Parties	Turkey	48974582	2	Trend News Agency (Azerbaijan)	Baku		Baku City	Azerbaijan	40.3777	49.892
34010241	2019-02-15	Russia		Russian Federation	Sign formal agreement	057	8	Turkey		Turkey	48974583	4	ITAR Tass	Sochi	Sochi City	Krasnodarskiy Kray	Russian Federation	43.5992	39.7257
34010242	2019-02-15	Iran		Iran	Sign formal agreement	057	8	Turkey		Turkey	48974583	4	ITAR Tass	Sochi	Sochi City	Krasnodarskiy Kray	Russian Federation	43.5992	39.7257
34010243	2019-02-15	Turkey		Turkey	Sign formal agreement	057	8	Russia		Russian Federation	48974583	4	ITAR Tass	Sochi	Sochi City	Krasnodarskiy Kray	Russian Federation	43.5992	39.7257
34010244	2019-02-15	Iran		Iran	Sign formal agreement	057	8	Russia		Russian Federation	48974583	4	ITAR Tass	Sochi	Sochi City	Krasnodarskiy Kray	Russian Federation	43.5992	39.7257
34010245	2019-02-15	Turkey		Turkey	Sign formal agreement	057	8	Iran		Iran	48974583	4	ITAR Tass	Sochi	Sochi City	Krasnodarskiy Kray	Russian Federation	43.5992	39.7257
34010246	2019-02-15	Russia		Russian Federation	Sign formal agreement	057	8	Iran		Iran	48974583	4	ITAR Tass	Sochi	Sochi City	Krasnodarskiy Kray	Russian Federation	43.5992	39.7257
34010208	2019-02-15	Sweden		Sweden	Reduce or break diplomatic relations	161	-4	China		China	48974598	1	The Wall Street Journal	Beijing		Beijing Shi	China	39.9075	116.397
34010230	2019-02-15	United States		United States	Accuse	112	-2	Iran		Iran	48974605	4	The Wall Street Journal	Warsaw	Warszawa	Mazowieckie	Poland	52.2298	21.0118
34010229	2019-02-15	Benjamin Netanyahu	Elite,Foreign Ministry,Parties,Executive Office,Ideological,(National) Major Party,Government,Executive,Center Right,International Ethnic,Jews	Israel	Praise or endorse	051	3.4	Jared Kushner	Government,Executive,Executive Office	United States	48974605	6	The Wall Street Journal	Warsaw	Warszawa	Mazowieckie	Poland	52.2298	21.0118
34010210	2019-02-15	United States		United States	Accuse	112	-2	Military (Pakistan)	Government,Military	Pakistan	48974606	3	The Wall Street Journal	Kashmir		Punjab	Pakistan	31.3422	74.3653
34010186	2019-02-15	India		India	Criticize or denounce	111	-2	Bharatiya Janata	(National) Major Party,Opposition Major Party (Out Of Government),Parties	India	48974608	1	Indo-Asian News Service	Panaji			India	15.4957	73.8262
34010200	2019-02-15	Nigeria		Nigeria	Praise or endorse	051	3.4	UN Women	Global,International Government Organization,Global Diplomatic IGOs,Global Human Rights IGOs		48974612	1	All Africa				Nigeria	9.17583	7.18083
34010201	2019-02-15	Citizen (Nigeria)	General Population / Civilian / Social,Social	Nigeria	Reduce relations	160	-4	Head of Government (Nigeria)	Government,Executive Office,Executive	Nigeria	48974612	2	All Africa				Nigeria	9.17583	7.18083
34010247	2019-02-15	Atiku Abubakar	Ideological,Parties,(National) Major Party,Centrist	Nigeria	Make an appeal or request	020	3	Citizen (Nigeria)	General Population / Civilian / Social,Social	Nigeria	48974615	1	All Africa			Adamawa State	Nigeria	9.33333	12.5
34010248	2019-02-15	Atiku Abubakar	Ideological,Parties,(National) Major Party,Centrist	Nigeria	Make an appeal or request	020	3	Nigeria		Nigeria	48974615	2	All Africa	Yola		Adamawa State	Nigeria	9.2	12.4833
34010221	2019-02-15	Head of Government (Nigeria)	Government,Executive Office,Executive	Nigeria	Make an appeal or request	020	3	Party Member (Nigeria)	Parties	Nigeria	48974616	1	All Africa			Yobe State	Nigeria	12	11.5
34010222	2019-02-15	Citizen (Nigeria)	General Population / Civilian / Social,Social	Nigeria	Make an appeal or request	020	3	Party Member (Nigeria)	Parties	Nigeria	48974616	1	All Africa			Yobe State	Nigeria	12	11.5
34010223	2019-02-15	Head of Government (Nigeria)	Government,Executive Office,Executive	Nigeria	Make an appeal or request	020	3	Political Parties (Nigeria)	Parties	Nigeria	48974616	1	All Africa			Yobe State	Nigeria	12	11.5
34010224	2019-02-15	Citizen (Nigeria)	General Population / Civilian / Social,Social	Nigeria	Make an appeal or request	020	3	Political Parties (Nigeria)	Parties	Nigeria	48974616	1	All Africa			Yobe State	Nigeria	12	11.5
34010225	2019-02-15	Head of Government (Nigeria)	Government,Executive Office,Executive	Nigeria	Make an appeal or request	020	3	Citizen (Nigeria)	General Population / Civilian / Social,Social	Nigeria	48974616	1	All Africa			Yobe State	Nigeria	12	11.5
34010220	2019-02-15	Head of Government (Nigeria)	Government,Executive Office,Executive	Nigeria	Make statement	010	0	Party Member (Nigeria)	Parties	Nigeria	48974616	3	All Africa	Potiskum		Yobe State	Nigeria	11.7091	11.0694
34010226	2019-02-15	Head of Government (Nigeria)	Government,Executive Office,Executive	Nigeria	Make an appeal or request	020	3	Citizen (Nigeria)	General Population / Civilian / Social,Social	Nigeria	48974616	6	All Africa			Yobe State	Nigeria	12	11.5
34010179	2019-02-15	Representatives (Nigeria)	Government,Legislative / Parliamentary	Nigeria	Sign formal agreement	057	8	Party Member (Nigeria)	Parties	Nigeria	48974619	2	All Africa			Borno State	Nigeria	11.5	13
34010180	2019-02-15	Party Member (Nigeria)	Parties	Nigeria	Sign formal agreement	057	8	Representatives (Nigeria)	Government,Legislative / Parliamentary	Nigeria	48974619	2	All Africa			Borno State	Nigeria	11.5	13
34010232	2019-02-15	Citizen (Australia)	Social,General Population / Civilian / Social	Australia	Acknowledge or claim responsibility	015	0	Member of the Judiciary (Turkey)	Government,Judicial	Turkey	48974622	2	AAP Bulletins	Bass Hill	Bankstown	State of New South Wales	Australia	-33.8986	150.995
34010236	2019-02-15	Court Judge (Australia)	Judicial,Government	Australia	Reject	120	-4	Businessperson (Australia)	Business,Social	Australia	48974623	4	Australian Associated Press	Sydney	City of Sydney	State of New South Wales	Australia	-33.8679	151.207
34010206	2019-02-15	Senate (Australia)	Legislative / Parliamentary,Upper House,Government	Australia	Make statement	010	0	Lawyer/Attorney (Australia)	Social,Legal	Australia	48974624	6	Australian Associated Press	Melbourne	Melbourne	State of Victoria	Australia	-37.814	144.963
34010269	2019-02-15	Raimonds Vejonis	Legislative / Parliamentary,Ideological,(National) Minor Party,Elite,Government,Unicameral,Cabinet,Executive,Executive Office,Centrist,Parties	Latvia	Consult	040	1	Edgars Rinkevics	Executive,Foreign Ministry,Government	Latvia	48974681	1	Latvian News Agency	Riga		Riga	Latvia	56.946	24.1059
34010270	2019-02-15	Edgars Rinkevics	Executive,Foreign Ministry,Government	Latvia	Consult	040	1	Raimonds Vejonis	Legislative / Parliamentary,Ideological,(National) Minor Party,Elite,Government,Unicameral,Cabinet,Executive,Executive Office,Centrist,Parties	Latvia	48974681	1	Latvian News Agency	Riga		Riga	Latvia	56.946	24.1059
34010271	2019-02-15	Raimonds Vejonis	Legislative / Parliamentary,Ideological,(National) Minor Party,Elite,Government,Unicameral,Cabinet,Executive,Executive Office,Centrist,Parties	Latvia	Make a visit	042	1.9	Germany		Germany	48974681	1	Latvian News Agency	Munich	Upper Bavaria	Freistaat Bayern	Germany	48.1374	11.5755
34010272	2019-02-15	Edgars Rinkevics	Executive,Foreign Ministry,Government	Latvia	Make a visit	042	1.9	Germany		Germany	48974681	1	Latvian News Agency	Munich	Upper Bavaria	Freistaat Bayern	Germany	48.1374	11.5755
34010273	2019-02-15	Germany		Germany	Host a visit	043	2.8	Raimonds Vejonis	Legislative / Parliamentary,Ideological,(National) Minor Party,Elite,Government,Unicameral,Cabinet,Executive,Executive Office,Centrist,Parties	Latvia	48974681	1	Latvian News Agency	Munich	Upper Bavaria	Freistaat Bayern	Germany	48.1374	11.5755
34010274	2019-02-15	Germany		Germany	Host a visit	043	2.8	Edgars Rinkevics	Executive,Foreign Ministry,Government	Latvia	48974681	1	Latvian News Agency	Munich	Upper Bavaria	Freistaat Bayern	Germany	48.1374	11.5755
34010330	2019-02-15	Mike Pence	Ideological,Center Right,(National) Major Party,Parties,Local,Provincial,Executive Office,Government,Executive,Legislative / Parliamentary,Lower House	United States	Accuse	112	-2	European Union	Regional,International Government Organization,Regional Diplomatic IGOs		48974683	4	Reuters News	Warsaw	Warszawa	Mazowieckie	Poland	52.2298	21.0118
34010379	2019-02-15	Bharatiya Janata	Opposition Major Party (Out Of Government),(National) Major Party,Parties	India	Criticize or denounce	111	-2	Arvind Kejriwal	Ideological,(National) Major Party,Far Left,Parties	India	48974685	1	Hindustan Times	Delhi		National Capital Territory of Delhi	India	28.6538	77.229
34010380	2019-02-15	Bharatiya Janata	Opposition Major Party (Out Of Government),(National) Major Party,Parties	India	Accuse	112	-2	Arvind Kejriwal	Ideological,(National) Major Party,Far Left,Parties	India	48974685	2	Hindustan Times	Delhi		National Capital Territory of Delhi	India	28.6538	77.229
34010323	2019-02-15	Sheila Dikshit	Government Major Party (In Government),(National) Major Party,Parties	India	Demand	100	-5	Government (India)	Government	India	48974694	1	Hindustan Times	Delhi		National Capital Territory of Delhi	India	28.6538	77.229
34010322	2019-02-15	Sheila Dikshit	Government Major Party (In Government),(National) Major Party,Parties	India	Make statement	010	0	Government (India)	Government	India	48974694	2	Hindustan Times	Delhi		National Capital Territory of Delhi	India	28.6538	77.229
34010363	2019-02-15	Cabinet / Council of Ministers / Advisors (India)	Executive,Government,Cabinet	India	Express intent to provide economic aid	0331	5.2	Citizen (India)	General Population / Civilian / Social,Social	India	48974702	2	Indo-Asian News Service	Jammu		State of Jammu and Kashmir	India	32.7357	74.8691
34010362	2019-02-15	Cabinet / Council of Ministers / Advisors (India)	Executive,Government,Cabinet	India	Make statement	010	0	Indian Administered Kashmir		India	48974702	5	Indo-Asian News Service	Jammu		State of Jammu and Kashmir	India	32.7357	74.8691
34010417	2019-02-15	Amarinder Singh	Government,Provincial,Local,Legislative / Parliamentary	India	Threaten	130	-4.4	Pakistan Army	Government,Military,Army	Pakistan	48974704	1	Indo-Asian News Service	Pulwama		State of Jammu and Kashmir	India	33.8741	74.8996
34010418	2019-02-15	Amarinder Singh	Government,Provincial,Local,Legislative / Parliamentary	India	Threaten	130	-4.4	Qamar Javed Bajwa	Government,Military	Pakistan	48974704	5	Indo-Asian News Service	Kashmir		Punjab	Pakistan	31.3422	74.3653
34010419	2019-02-15	Amarinder Singh	Government,Provincial,Local,Legislative / Parliamentary	India	Threaten	130	-4.4	Imran Khan	Ideological,Dissident,Parties,Centrist,Protestors / Popular Opposition / Mobs,(National) Minor Party	Pakistan	48974704	5	Indo-Asian News Service	Kashmir		Punjab	Pakistan	31.3422	74.3653
34010408	2019-02-15	Raimonds Vejonis	Legislative / Parliamentary,Ideological,(National) Minor Party,Elite,Government,Unicameral,Cabinet,Executive,Executive Office,Centrist,Parties	Latvia	Consult	040	1	Edgars Rinkevics	Executive,Foreign Ministry,Government	Latvia	48974705	1	Baltic Daily	Riga		Riga	Latvia	56.946	24.1059
34010409	2019-02-15	Edgars Rinkevics	Executive,Foreign Ministry,Government	Latvia	Consult	040	1	Raimonds Vejonis	Legislative / Parliamentary,Ideological,(National) Minor Party,Elite,Government,Unicameral,Cabinet,Executive,Executive Office,Centrist,Parties	Latvia	48974705	1	Baltic Daily	Riga		Riga	Latvia	56.946	24.1059
34010410	2019-02-15	Raimonds Vejonis	Legislative / Parliamentary,Ideological,(National) Minor Party,Elite,Government,Unicameral,Cabinet,Executive,Executive Office,Centrist,Parties	Latvia	Make a visit	042	1.9	Germany		Germany	48974705	1	Baltic Daily	Munich	Upper Bavaria	Freistaat Bayern	Germany	48.1374	11.5755
34010411	2019-02-15	Edgars Rinkevics	Executive,Foreign Ministry,Government	Latvia	Make a visit	042	1.9	Germany		Germany	48974705	1	Baltic Daily	Munich	Upper Bavaria	Freistaat Bayern	Germany	48.1374	11.5755
34010412	2019-02-15	Germany		Germany	Host a visit	043	2.8	Raimonds Vejonis	Legislative / Parliamentary,Ideological,(National) Minor Party,Elite,Government,Unicameral,Cabinet,Executive,Executive Office,Centrist,Parties	Latvia	48974705	1	Baltic Daily	Munich	Upper Bavaria	Freistaat Bayern	Germany	48.1374	11.5755
34010413	2019-02-15	Germany		Germany	Host a visit	043	2.8	Edgars Rinkevics	Executive,Foreign Ministry,Government	Latvia	48974705	1	Baltic Daily	Munich	Upper Bavaria	Freistaat Bayern	Germany	48.1374	11.5755
34010391	2019-02-15	Government (Italy)	Government	Italy	Consult	040	1	Activist (France)	Human Rights IGOs,Human Rights NGOs,Nongovernmental Organization (International),Nongovernmental Organizations / Activists	France	48974707	4	Associated Press Newswires	Rome	Provincia di Roma	Lazio	Italy	41.8947	12.4839
34010392	2019-02-15	Activist (France)	Human Rights IGOs,Human Rights NGOs,Nongovernmental Organization (International),Nongovernmental Organizations / Activists	France	Consult	040	1	Government (Italy)	Government	Italy	48974707	4	Associated Press Newswires	Rome	Provincia di Roma	Lazio	Italy	41.8947	12.4839
34010355	2019-02-15	India		India	Accuse	112	-2	Pakistan		Pakistan	48974709	1	Agence France-Presse	Kashmir		Punjab	Pakistan	31.3422	74.3653
34010354	2019-02-15	Foreign Affairs (India)	Executive,Government,Foreign Ministry	India	Make statement	010	0	Jaish-e-Mohammad	International Dissident,International Terrorists,Dissident,Separatists	Pakistan	48974709	6	Agence France-Presse			State of Jammu and Kashmir	India	33.9167	76.6667
34010356	2019-02-15	Pakistan		Pakistan	Use conventional military force	190	-10	India		India	48974709	6	Agence France-Presse			State of Jammu and Kashmir	India	33.9167	76.6667
34010327	2019-02-15	Activist (Ukraine)	Human Rights IGOs,Nongovernmental Organizations / Activists,Nongovernmental Organization (International),Human Rights NGOs	Ukraine	Demonstrate or rally	141	-6.5	Other Authorities / Officials (Ukraine)	Government	Ukraine	48974711	6	Agence France-Presse				Ukraine	50.4547	30.5238
34010277	2019-02-15	South Korea		South Korea	Express intent to meet or negotiate	036	4	Japan		Japan	48974712	3	Yonhap English News	Munich	Upper Bavaria	Freistaat Bayern	Germany	48.1374	11.5755
34010278	2019-02-15	Japan		Japan	Express intent to meet or negotiate	036	4	South Korea		South Korea	48974712	3	Yonhap English News	Munich	Upper Bavaria	Freistaat Bayern	Germany	48.1374	11.5755
34010336	2019-02-15	Myanmar		Myanmar	Coerce	170	-7	Men (Myanmar)	General Population / Civilian / Social,Social	Myanmar	48974716	1	Reuters News	Yangon		Yangon Region	Myanmar	16.8053	96.1561
34010337	2019-02-15	Court Judge (Myanmar)	Judicial,Government	Myanmar	Coerce	170	-7	Armed Gang (Myanmar)	Unidentified Forces	Myanmar	48974716	4	Reuters News	Yangon		Yangon Region	Myanmar	16.8053	96.1561
34010338	2019-02-15	Court Judge (Myanmar)	Judicial,Government	Myanmar	Coerce	170	-7	Military Personnel (Myanmar)	Military,Government	Myanmar	48974716	4	Reuters News	Yangon		Yangon Region	Myanmar	16.8053	96.1561
34010339	2019-02-15	Court Judge (Myanmar)	Judicial,Government	Myanmar	Coerce	170	-7	Criminal (Myanmar)	Criminals / Gangs,Dissident	Myanmar	48974716	5	Reuters News	Yangon		Yangon Region	Myanmar	16.8053	96.1561
34010276	2019-02-15	Labor Party (United Kingdom)	Parties,Social,Labor	United Kingdom	Express intent to engage in diplomatic cooperation (such as policy support)	032	4.5	Theresa May	Ideological,Center Right,Executive,Parties,Executive Office,(National) Major Party,Government,Elite	United Kingdom	48974718	3	Reuters News			Britain	United Kingdom	53.5938	-1.86823
34010328	2019-02-15	Citizen (Germany)	General Population / Civilian / Social,Social	Germany	Appeal for humanitarian aid	0233	3.4	Germany		Germany	48974726	5	Deutsche Welle				Germany	52.5244	13.4105
34010343	2019-02-15	Myanmar		Myanmar	Arrest, detain, or charge with legal action	173	-5	Men (Myanmar)	General Population / Civilian / Social,Social	Myanmar	48974727	3	Deutsche Welle				Myanmar	19.745	96.1297
34010344	2019-02-15	Myanmar		Myanmar	Arrest, detain, or charge with legal action	173	-5	Citizen (Myanmar)	General Population / Civilian / Social,Social	Myanmar	48974727	3	Deutsche Welle				Myanmar	19.745	96.1297
34010345	2019-02-15	Men (Myanmar)	General Population / Civilian / Social,Social	Myanmar	fight with small arms and light weapons	193	-10	Aung San	Protestors / Popular Opposition / Mobs,Dissident	Myanmar	48974727	5	Deutsche Welle	Yangon		Yangon Region	Myanmar	16.8053	96.1561
34010289	2019-02-15	Ethiopia		Ethiopia	Make statement	010	0	Combatant (Ethiopia)	Unidentified Forces	Ethiopia	48974731	1	Agence France-Presse				Ethiopia	9.02497	38.7469
34010297	2019-02-15	Muhammadu Buhari	Ideological,International Religious,Elite,Center Left,Government,Parties,(National) Major Party,Muslim,International Ethnic,Fulani / Fulbe,(National) Minor Party,Far Right,Executive,Executive Office	Nigeria	Praise or endorse	051	3.4	Bill Clinton	Ideological,(National) Major Party,Parties,Center Left	United States	48974734	6	All Africa				Nigeria	9.17583	7.18083
34010388	2019-02-15	Lawyer/Attorney (Zimbabwe)	Social,Legal	Zimbabwe	Ease administrative sanctions	081	5	Senate (Zimbabwe)	Legislative / Parliamentary,Government,Upper House	Zimbabwe	48974736	1	All Africa	Hwange		Matabeleland North Province	Zimbabwe	-18.3693	26.5019
34010385	2019-02-15	Pakistan		Pakistan	Deny responsibility	016	-5	India		India	48974739	2	EFE News Service	Kashmir		Punjab	Pakistan	31.3422	74.3653
34010386	2019-02-15	Militant (Pakistan administered Kashmir)		Pakistan	Conduct suicide, car, or other non-military bombing	183	-10	Pakistan administered Kashmir		Pakistan	48974739	2	EFE News Service	Kashmir		Punjab	Pakistan	31.3422	74.3653
34010366	2019-02-15	Military (Ukraine)	Military,Government	Ukraine	fight with small arms and light weapons	193	-10	Ukraine		Ukraine	48974742	3	ITAR Tass	Donetsk		Donets'ka Oblast'	Ukraine	48.023	37.8022
34010279	2019-02-15	Military (Ukraine)	Military,Government	Ukraine	Use conventional military force	190	-10	Citizen (Ukraine)	Social,General Population / Civilian / Social	Ukraine	48974744	1	ITAR Tass	Kiev		Misto Kyyiv	Ukraine	50.4547	30.5238
34010280	2019-02-15	Military (Ukraine)	Military,Government	Ukraine	fight with small arms and light weapons	193	-10	Ukraine		Ukraine	48974744	2	ITAR Tass	Kiev		Misto Kyyiv	Ukraine	50.4547	30.5238
34010389	2019-02-15	Muhyiddin Yassin	Government,Interior / Home Ministry,Executive	Malaysia	Make a visit	042	1.9	Turkey		Turkey	48974746	4	Straits Times	Istanbul		Istanbul	Turkey	41.0138	28.9497
34010390	2019-02-15	Turkey		Turkey	Host a visit	043	2.8	Muhyiddin Yassin	Government,Interior / Home Ministry,Executive	Malaysia	48974746	4	Straits Times	Istanbul		Istanbul	Turkey	41.0138	28.9497
34010367	2019-02-15	Foreign Affairs (Venezuela)	Executive,Foreign Ministry,Government	Venezuela	Accuse	112	-2	United States		United States	48974752	1	The New York Times	New York City		state of New York	United States	40.7143	-74.006
34010315	2019-02-15	Head of Government (Latvia)	Executive,Executive Office,Government	Latvia	Make optimistic comment	013	0.4	Citizen (Latvia)	General Population / Civilian / Social,Social	Latvia	48974756	3	Latvian News Agency	Riga		Riga	Latvia	56.946	24.1059
34010360	2019-02-15	Lee Hsien Loong	Executive,(National) Major Party,Government,Executive Office,Elite,Legislative / Parliamentary,Government Major Party (In Government),Parties	Singapore	Make statement	010	0	Military (Singapore)	Military,Government	Singapore	48974762	1	Channel NewsAsia				Singapore	1.28967	103.85
34010361	2019-02-15	Lee Hsien Loong	Executive,(National) Major Party,Government,Executive Office,Elite,Legislative / Parliamentary,Government Major Party (In Government),Parties	Singapore	Make statement	010	0	Military (Singapore)	Military,Government	Singapore	48974762	5	Channel NewsAsia				Singapore	1.28967	103.85
34010368	2019-02-15	Thailand		Thailand	Express intent to engage in diplomatic cooperation (such as policy support)	032	4.5	Cambodia		Cambodia	48974765	2	Bangkok Post	Phnom Penh		Phnom Penh	Cambodia	11.5625	104.916
34010369	2019-02-15	Cambodia		Cambodia	Express intent to engage in diplomatic cooperation (such as policy support)	032	4.5	Thailand		Thailand	48974765	2	Bangkok Post	Phnom Penh		Phnom Penh	Cambodia	11.5625	104.916
34010288	2019-02-15	Police (Thailand)	Police,Government	Thailand	Arrest, detain, or charge with legal action	173	-5	Men (Thailand)	Social,General Population / Civilian / Social	Thailand	48974766	1	Bangkok Post	Bangkok		Krung Thep Mahanakhon	Thailand	13.754	100.501
34010402	2019-02-15	Somkid Jatusripitak	(National) Major Party,Opposition Major Party (Out Of Government),Dissident,Parties,Elite,Protestors / Popular Opposition / Mobs	Thailand	Make statement	010	0	Government (Japan)	Government	Japan	48974768	3	Bangkok Post			Wakayama-ken	Japan	33.9146	135.511
34010320	2019-02-15	Constitutional Court (Thailand)	Judicial,Government	Thailand	Make statement	010	0	Court Judge (Thailand)	Judicial,Government	Thailand	48974772	3	Bangkok Post				Thailand	13.75	100.517
34010321	2019-02-15	Constitutional Court (Thailand)	Judicial,Government	Thailand	Consider policy option	014	0	Election Commission (Thailand)	Elections Ministry,Executive,Government	Thailand	48974772	3	Bangkok Post				Thailand	13.75	100.517
34010308	2019-02-15	Head of Government (Latvia)	Executive,Executive Office,Government	Latvia	Make optimistic comment	013	0.4	Citizen (Latvia)	General Population / Civilian / Social,Social	Latvia	48974773	3	Baltic Daily	Riga		Riga	Latvia	56.946	24.1059
34010294	2019-02-15	Donald Trump	Executive Office,Government,Executive	United States	Criticize or denounce	111	-2	Japan		Japan	48974776	4	Associated Press Newswires			Washington D.C.	United States	38.9171	-77.0003
34010393	2019-02-15	Government (Japan)	Government	Japan	Reject	120	-4	Citizen (Japan)	General Population / Civilian / Social,Social	Japan	48974777	5	Mainichi Daily News				Japan	35.6149	139.581
34010405	2019-02-15	Singapore		Singapore	Praise or endorse	051	3.4	Combatant (Malaysia)	Unidentified Forces	Malaysia	48974788	1	Straits Times	Johor			Singapore	1.48265	103.91
34010305	2019-02-15	New Zealand		New Zealand	Engage in diplomatic cooperation	050	3.5	United States		United States	48974798	6	The New York Times	Beijing		Beijing Shi	China	39.9075	116.397
34010364	2019-02-15	North Atlantic Treaty Organization	Global,International Government Organization,Global Defense / Security IGOs		Make a visit	042	1.9	Belgium		Belgium	48974799	2	The New York Times	Brussels	(Bruxelles-Capitale)	Bruxelles-Capitale	Belgium	50.8504	4.34878
34010365	2019-02-15	Belgium		Belgium	Host a visit	043	2.8	North Atlantic Treaty Organization	Global,International Government Organization,Global Defense / Security IGOs		48974799	2	The New York Times	Brussels	(Bruxelles-Capitale)	Bruxelles-Capitale	Belgium	50.8504	4.34878
34010325	2019-02-15	Ministry (China)	Government	China	Investigate	090	-2	Citizen (China)	Social,General Population / Civilian / Social	China	48974819	5	The New York Times	Beijing		Beijing Shi	China	39.9075	116.397
34010373	2019-02-15	Justin Trudeau	Ideological,Legislative / Parliamentary,Center Left,Executive Office,Executive,(National) Major Party,Parties,Government	Canada	Demand diplomatic cooperation (such as policy support)	102	-5	Lawyer/Attorney (Canada)	Social,Legal	Canada	48974821	6	The New York Times	Montreal	Montreal	Quebec	Canada	45.5088	-73.5878
34010374	2019-02-15	Citizen (Canada)	Social,General Population / Civilian / Social	Canada	Demand diplomatic cooperation (such as policy support)	102	-5	Lawyer/Attorney (Canada)	Social,Legal	Canada	48974821	6	The New York Times	Montreal	Montreal	Quebec	Canada	45.5088	-73.5878
34010334	2019-02-15	Theresa May	Ideological,Center Right,Executive,Parties,Executive Office,(National) Major Party,Government,Elite	United Kingdom	Express intent to cooperate	030	4	European Union	Regional,International Government Organization,Regional Diplomatic IGOs		48974822	4	The New York Times	Brussels	(Bruxelles-Capitale)	Bruxelles-Capitale	Belgium	50.8504	4.34878
34010290	2019-02-15	United States		United States	Arrest, detain, or charge with legal action	173	-5	Joaquín Guzmán Loera	Criminals / Gangs,Dissident	Mexico	48974839	2	The New York Times	Brooklyn	Kings County	state of New York	United States	40.6501	-73.9496
34010403	2019-02-15	Arun Jaitley	International Religious,Executive,Government,Opposition Major Party (Out Of Government),(National) Major Party,Defense / Security Ministry,Hindu,Finance / Economy / Commerce / Trade Ministry,Elite,Parties	India	Make a visit	042	1.9	United States		United States	48974847	2	Reuters News	New York City		state of New York	United States	40.7143	-74.006
34010404	2019-02-15	United States		United States	Host a visit	043	2.8	Arun Jaitley	International Religious,Executive,Government,Opposition Major Party (Out Of Government),(National) Major Party,Defense / Security Ministry,Hindu,Finance / Economy / Commerce / Trade Ministry,Elite,Parties	India	48974847	2	Reuters News	New York City		state of New York	United States	40.7143	-74.006
34010275	2019-02-15	Ministry (India)	Government	India	Make statement	010	0	Government (India)	Government	India	48974848	2	Hindustan Times	Srinagar		State of Jammu and Kashmir	India	34.0884	74.803
34010381	2019-02-15	Student (India)	Education,Social	India	Demonstrate or rally	141	-6.5	Unspecified Actor	Unspecified		48974850	1	Hindustan Times	Srinagar		State of Jammu and Kashmir	India	34.0884	74.803
34010383	2019-02-15	Education (India)	Education,Social	India	Conduct strike or boycott	143	-6.5	Student (India)	Education,Social	India	48974850	2	Hindustan Times	Canal Road			Pakistan	33.9784	71.5145
34010384	2019-02-15	Citizen (India)	General Population / Civilian / Social,Social	India	Conduct strike or boycott	143	-6.5	Student (India)	Education,Social	India	48974850	2	Hindustan Times	Canal Road			Pakistan	33.9784	71.5145
34010382	2019-02-15	Student (India)	Education,Social	India	Demonstrate or rally	141	-6.5	Unspecified Actor	Unspecified		48974850	3	Hindustan Times	Canal Road			Pakistan	33.9784	71.5145
34010299	2019-02-15	Rajnath Singh	Executive,Opposition Major Party (Out Of Government),Government,(National) Major Party,Legislative / Parliamentary,Parties,Interior / Home Ministry	India	Consult	040	1	Indian Administered Kashmir		India	48974853	1	Hindustan Times	Jammu		State of Jammu and Kashmir	India	32.7357	74.8691
34010300	2019-02-15	Indian Administered Kashmir		India	Consult	040	1	Rajnath Singh	Executive,Opposition Major Party (Out Of Government),Government,(National) Major Party,Legislative / Parliamentary,Parties,Interior / Home Ministry	India	48974853	1	Hindustan Times	Jammu		State of Jammu and Kashmir	India	32.7357	74.8691
34010282	2019-02-15	Pakistan		Pakistan	Praise or endorse	051	3.4	India		India	48974857	2	Hindustan Times	Kashmir		Punjab	Pakistan	31.3422	74.3653
34010398	2019-02-15	Rahul Gandhi	Government Major Party (In Government),(National) Major Party,Parties,Government	India	Make statement	010	0	India		India	48974859	1	Hindustan Times	Pulwama		State of Jammu and Kashmir	India	33.8741	74.8996
34010357	2019-02-15	France		France	Express intent to engage in diplomatic cooperation (such as policy support)	032	4.5	Armenia		Armenia	48974867	5	ARKA - News (Armenia)				France	48.8534	2.3486
34010358	2019-02-15	Emmanuel Macron	Government,Elite,Executive,Executive Office	Andorra	Express intent to meet or negotiate	036	4	Armenia		Armenia	48974867	6	ARKA - News (Armenia)				Armenia	40.1811	44.5136
34010312	2019-02-15	Nikol Pashinyan	Executive Office,Elite,Government,Executive	Armenia	Praise or endorse	051	3.4	Saad Hariri	Ideological,International Religious,Center Right,(National) Minor Party,Elite,Executive,Sunni,Parties,Executive Office,Government	Lebanon	48974868	4	ARKA - News (Armenia)	Yerevan		Yerevan	Armenia	40.1811	44.5136
34010309	2019-02-15	Saad Hariri	Ideological,International Religious,Center Right,(National) Minor Party,Elite,Executive,Sunni,Parties,Executive Office,Government	Lebanon	Make optimistic comment	013	0.4	Government (Armenia)	Government	Armenia	48974868	5	ARKA - News (Armenia)				Lebanon	33.8889	35.4944
34010310	2019-02-15	Armenia		Armenia	Consult	040	1	Lebanon		Lebanon	48974868	6	ARKA - News (Armenia)				Armenia	40.1811	44.5136
34010311	2019-02-15	Lebanon		Lebanon	Consult	040	1	Armenia		Armenia	48974868	6	ARKA - News (Armenia)				Lebanon	33.8889	35.4944
34010335	2019-02-15	Army Personnel (Thailand)	Military,Government	Thailand	Threaten	130	-4.4	Head of Government (Thailand)	Executive,Government,Executive Office	Thailand	48974870	3	Agence France-Presse				Thailand	13.75	100.517
34010414	2019-02-15	Myanmar		Myanmar	Coerce	170	-7	Citizen (Myanmar)	General Population / Civilian / Social,Social	Myanmar	48974873	1	Agence France-Presse	Yangon		Yangon Region	Myanmar	16.8053	96.1561
34010415	2019-02-15	Court Judge (Myanmar)	Judicial,Government	Myanmar	Arrest, detain, or charge with legal action	173	-5	Armed Gang (Myanmar)	Unidentified Forces	Myanmar	48974873	6	Agence France-Presse				Myanmar	19.745	96.1297
34010416	2019-02-15	Armed Gang (Myanmar)	Unidentified Forces	Myanmar	Use unconventional violence	180	-9	Citizen (Myanmar)	General Population / Civilian / Social,Social	Myanmar	48974873	6	Agence France-Presse				Myanmar	19.745	96.1297
34010304	2019-02-15	Nelson Chamisa	Ideological,Post / Tecoms Ministry,Center Left,Legislative / Parliamentary,Lower House,Government,(National) Major Party,Executive,Parties,Cabinet	Zimbabwe	Criticize or denounce	111	-2	Emmerson Mnangagwa	Ideological,Far Left,Defense / Security Ministry,Executive Office,Government,(National) Major Party,Executive,Parties,Cabinet,Elite	Zimbabwe	48974877	3	All Africa				Zimbabwe	-17.8293	31.0539
34010296	2019-02-15	Malawi Congress Party	(National) Minor Party,Parties	Malawi	Accuse	112	-2	Democratic Progressive Party	Ideological,Parties,(National) Major Party,Center Left	Malawi	48974879	3	All Africa	Lilongwe	Lilongwe District	Central Region	Malawi	-13.9669	33.7873
34010295	2019-02-15	Malawi Congress Party	(National) Minor Party,Parties	Malawi	Make statement	010	0	Democratic Progressive Party	Ideological,Parties,(National) Major Party,Center Left	Malawi	48974879	4	All Africa	Lilongwe	Lilongwe District	Central Region	Malawi	-13.9669	33.7873
34010283	2019-02-15	Terrorist (Boko Haram)	International Religious,Dissident,Insurgents,Muslim	Nigeria	Use unconventional violence	180	-9	Citizen (Nigeria)	General Population / Civilian / Social,Social	Nigeria	48974880	1	All Africa			Borno State	Nigeria	11.5	13
34010378	2019-02-15	Foreign Affairs (United States)	Government,Foreign Ministry,Executive	United States	Make an appeal or request	020	3	Citizen (Nigeria)	General Population / Civilian / Social,Social	Nigeria	48974882	5	All Africa	Lagos		Lagos State	Nigeria	6.45306	3.39583
34010395	2019-02-15	Nelson Chamisa	Ideological,Post / Tecoms Ministry,Center Left,Legislative / Parliamentary,Lower House,Government,(National) Major Party,Executive,Parties,Cabinet	Zimbabwe	Make an appeal or request	020	3	Elias Mudzuri	Ideological,Dissident,Center Left,(National) Major Party,Parties,Protestors / Popular Opposition / Mobs	Zimbabwe	48974888	2	All Africa	Harare		Harare Province	Zimbabwe	-17.8277	31.0534
34010396	2019-02-15	Nelson Chamisa	Ideological,Post / Tecoms Ministry,Center Left,Legislative / Parliamentary,Lower House,Government,(National) Major Party,Executive,Parties,Cabinet	Zimbabwe	Reduce relations	160	-4	Elias Mudzuri	Ideological,Dissident,Center Left,(National) Major Party,Parties,Protestors / Popular Opposition / Mobs	Zimbabwe	48974888	2	All Africa	Harare		Harare Province	Zimbabwe	-17.8277	31.0534
34010394	2019-02-15	Thokozani Khupe	Ideological,(National) Major Party,Parties,Center Left	Zimbabwe	Make statement	010	0	Nelson Chamisa	Ideological,Post / Tecoms Ministry,Center Left,Legislative / Parliamentary,Lower House,Government,(National) Major Party,Executive,Parties,Cabinet	Zimbabwe	48974888	3	All Africa	Harare		Harare Province	Zimbabwe	-17.8277	31.0534
34010376	2019-02-15	Nelson Chamisa	Ideological,Post / Tecoms Ministry,Center Left,Legislative / Parliamentary,Lower House,Government,(National) Major Party,Executive,Parties,Cabinet	Zimbabwe	Make statement	010	0	Head of Government (Zimbabwe)	Executive,Executive Office,Government	Zimbabwe	48974890	2	All Africa	Harare		Harare Province	Zimbabwe	-17.8277	31.0534
34010349	2019-02-15	Insurgent (Nigeria)	Dissident,Rebel	Nigeria	Use unconventional violence	180	-9	Kashim Shettima	Ideological,Far Right,Government,Parties,(National) Major Party,Local,Provincial	Nigeria	48974893	1	All Africa			Borno State	Nigeria	11.5	13
34010346	2019-02-15	Media Personnel (Nigeria)	Social,Media	Nigeria	Make statement	010	0	Kashim Shettima	Ideological,Far Right,Government,Parties,(National) Major Party,Local,Provincial	Nigeria	48974893	2	All Africa			Borno State	Nigeria	11.5	13
34010347	2019-02-15	Kashim Shettima	Ideological,Far Right,Government,Parties,(National) Major Party,Local,Provincial	Nigeria	Make statement	010	0	Media Personnel (Nigeria)	Social,Media	Nigeria	48974893	2	All Africa			Borno State	Nigeria	11.5	13
34010348	2019-02-15	Kashim Shettima	Ideological,Far Right,Government,Parties,(National) Major Party,Local,Provincial	Nigeria	Express intent to meet or negotiate	036	4	Citizen (Nigeria)	General Population / Civilian / Social,Social	Nigeria	48974893	4	All Africa	Ngala		Borno State	Nigeria	12.3377	14.1805
34010452	2019-02-15	Vivian Balakrishnan	Government,Executive,Foreign Ministry	Singapore	Make statement	010	0	Singapore		Singapore	48974961	1	Straits Times	Jammu		State of Jammu and Kashmir	India	32.7357	74.8691
34010464	2019-02-15	Federica Mogherini	International Government Organization,Regional Diplomatic IGOs,Center Left,Ideological,Parties,(National) Major Party,Regional	Italy	Accuse	112	-2	European Union	International Government Organization,Regional Diplomatic IGOs,Regional		48974964	6	Reuters News	Warsaw	Warszawa	Mazowieckie	Poland	52.2298	21.0118
34010492	2019-02-15	Police (India)	Police,Government	India	Make statement	010	0	Mob (India)	Protestors / Popular Opposition / Mobs,Dissident	India	48974967	2	Hindustan Times	Pulwama		State of Jammu and Kashmir	India	33.8741	74.8996
34010516	2019-02-15	China		China	Reject	120	-4	India		India	48974970	2	Indo-Asian News Service	Mumbai	Konkan Division	State of Maharashtra	India	19.0728	72.8826
34010517	2019-02-15	China		China	Threaten with military force	138	-7	Military (India)	Military,Government	India	48974970	2	Indo-Asian News Service	Mumbai	Konkan Division	State of Maharashtra	India	19.0728	72.8826
34010523	2019-02-15	Tejashwi Prasad Yadav		India	Make statement	010	0	Bharatiya Janata	Parties,Opposition Major Party (Out Of Government),(National) Major Party	India	48974971	6	Indo-Asian News Service			State of Bihar	India	25.75	85.75
34010524	2019-02-15	Narendra Modi	Nationalist,Parties,Opposition Major Party (Out Of Government),(National) Major Party,Ideological,Radicals / Extremists / Fundamentalists,Far Right,Elite,Hindu,International Religious,Dissident	India	Make a visit	042	1.9	Pakistan		Pakistan	48974971	6	Indo-Asian News Service				Pakistan	33.7215	73.0433
34010525	2019-02-15	Pakistan		Pakistan	Host a visit	043	2.8	Narendra Modi	Nationalist,Parties,Opposition Major Party (Out Of Government),(National) Major Party,Ideological,Radicals / Extremists / Fundamentalists,Far Right,Elite,Hindu,International Religious,Dissident	India	48974971	6	Indo-Asian News Service				Pakistan	33.7215	73.0433
34010420	2019-02-15	Su Tseng Chang	Center Left,Opposition Major Party (Out Of Government),(National) Major Party,Nationalist,Parties,Ideological,Elite	Taiwan	Make optimistic comment	013	0.4	Legislature (Taiwan)	Government,Legislative / Parliamentary	Taiwan	48974975	6	Central News Agency English News	Taipei		Taipei	Taiwan	25.0478	121.532
34010518	2019-02-15	Tsai Ing-wen	Center Left,Executive,Government,Opposition Major Party (Out Of Government),(National) Major Party,Nationalist,Executive Office,Parties,Ideological,Elite	Taiwan	Make statement	010	0	Taiwan		Taiwan	48974976	2	Central News Agency English News	Taipei		Taipei	Taiwan	25.0478	121.532
34010519	2019-02-15	Hilda C. Heine	Government,Provincial,Executive,Local,Executive Office	Marshall Islands	Praise or endorse	051	3.4	Taiwan		Taiwan	48974976	4	Central News Agency English News	Taipei		Taipei	Taiwan	25.0478	121.532
34010446	2019-02-15	Dalia Grybauskaitė	Government,Elite,Executive Office,Executive	Lithuania	Engage in material cooperation	060	6	Citizen (Lithuania)	Social,General Population / Civilian / Social	Lithuania	48974978	2	Baltic Daily	Vilnius	Vilnius	Vilniaus Apskritis	Lithuania	54.6892	25.2798
34010430	2019-02-15	Pedro Sanchez	(National) Major Party,Parties,Center Left,Ideological,Medical / Health,Social	Spain	Reduce relations	160	-4	Citizen (Spain)	General Population / Civilian / Social,Social	Spain	48974983	3	Agence France-Presse				Spain	40.4165	-3.70256
34010429	2019-02-15	Member of Parliament (Spain)	Government,Legislative / Parliamentary	Spain	Engage in diplomatic cooperation	050	3.5	Lawmaker (Spain)	Government,Legislative / Parliamentary	Spain	48974983	5	Agence France-Presse			Catalunya	Spain	41.8205	1.86768
34010465	2019-02-15	Inonge Wina	Executive,Executive Office,Center Left,Government,Parties,(National) Major Party,Ideological	Zambia	Make a visit	042	1.9	India		India	48974986	2	Xinhua News Agency				India	28.6358	77.2244
34010466	2019-02-15	India		India	Host a visit	043	2.8	Inonge Wina	Executive,Executive Office,Center Left,Government,Parties,(National) Major Party,Ideological	Zambia	48974986	2	Xinhua News Agency				India	28.6358	77.2244
34010486	2019-02-15	Cyril Ramaphosa	Management / Budget / Planning / Organization Ministry,Ideological,Executive Office,Government Major Party (In Government),Executive,Government,Business,Far Left,Consulting / Financial Services Business,Elite,Social,Parties,(National) Major Party	South Africa	Make statement	010	0	National Prosecuting Authority	Government,Justice / Law Ministry,Executive	South Africa	48974987	5	Xinhua News Agency	Cape Town	City of Cape Town	Province of the Western Cape	South Africa	-33.9258	18.4232
34010487	2019-02-15	Cyril Ramaphosa	Management / Budget / Planning / Organization Ministry,Ideological,Executive Office,Government Major Party (In Government),Executive,Government,Business,Far Left,Consulting / Financial Services Business,Elite,Social,Parties,(National) Major Party	South Africa	Express intent to cooperate	030	4	Member of Parliament (South Africa)	Government,Legislative / Parliamentary	South Africa	48974987	5	Xinhua News Agency	Cape Town	City of Cape Town	Province of the Western Cape	South Africa	-33.9258	18.4232
34010445	2019-02-15	Police (Russia)	Government,Police	Russian Federation	Investigate	090	-2	Russia		Russian Federation	48974988	2	ITAR Tass	Moscow		Moskva	Russian Federation	55.7522	37.6156
34010481	2019-02-15	Citizen (Syria)	Social,General Population / Civilian / Social	Syria	Use unconventional violence	180	-9	Syria		Syria	48974989	1	ITAR Tass	Douma		Muhafazat Rif Dimashq	Syria	33.5718	36.4027
34010504	2019-02-15	Military (Philippines)	Government,Military	Philippines	fight with small arms and light weapons	193	-10	Bangsamoro Islamic Freedom Fighters	International Religious,Dissident,Muslim,International Ethnic,Separatists	Philippines	48974994	1	PNA (Philippines News Agency)		Province of Maguindanao	Autonomous Region in Muslim Mindanao	Philippines	7.13333	124.3
34010505	2019-02-15	Bangsamoro Islamic Freedom Fighters	International Religious,Dissident,Muslim,International Ethnic,Separatists	Philippines	fight with small arms and light weapons	193	-10	Military (Philippines)	Government,Military	Philippines	48974994	1	PNA (Philippines News Agency)		Province of Maguindanao	Autonomous Region in Muslim Mindanao	Philippines	7.13333	124.3
34010506	2019-02-15	Joel Villanueva	Government,Labor Ministry,Executive	Philippines	Make pessimistic comment	012	-0.4	Indigenous People (China)	Social,General Population / Civilian / Social	China	48974995	3	PNA (Philippines News Agency)	Manila	City of Manila	National Capital Region	Philippines	14.6042	120.982
34010521	2019-02-15	Eastern Mindanao Command	Government,Military	Philippines	Appeal for de-escalation of military engagement	0256	-0.3	Military (Philippines)	Government,Military	Philippines	48974997	1	PNA (Philippines News Agency)	Manila	City of Manila	National Capital Region	Philippines	14.6042	120.982
34010522	2019-02-15	Communist Rebel (Philippines)	Insurgents,Dissident,Communist,Ideological	Philippines	Use conventional military force	190	-10	Military (Philippines)	Government,Military	Philippines	48974997	4	PNA (Philippines News Agency)	Makilala	Province of North Cotabato	Soccsksargen	Philippines	6.95167	125.097
34010426	2019-02-15	India		India	Consult	040	1	Envoy (Pakistan)	Government,Foreign Ministry,Executive	Pakistan	48975000	1	Reuters News	New Delhi		National Capital Territory of Delhi	India	28.6358	77.2244
34010427	2019-02-15	Envoy (Pakistan)	Government,Foreign Ministry,Executive	Pakistan	Consult	040	1	India		India	48975000	1	Reuters News	Kashmir		Punjab	Pakistan	31.3422	74.3653
34010468	2019-02-15	Xi Jinping	Elite,Military,Government Major Party (In Government),(National) Major Party,Executive,Parties,Government,Executive Office,Legislative / Parliamentary,Unicameral	China	Consult	040	1	United States		United States	48975001	1	Reuters News	Beijing		Beijing Shi	China	39.9075	116.397
34010469	2019-02-15	Xi Jinping	Elite,Military,Government Major Party (In Government),(National) Major Party,Executive,Parties,Government,Executive Office,Legislative / Parliamentary,Unicameral	China	Consult	040	1	Steven Mnuchin	Executive,Government,Finance / Economy / Commerce / Trade Ministry	United States	48975001	1	Reuters News	Beijing		Beijing Shi	China	39.9075	116.397
34010470	2019-02-15	United States		United States	Consult	040	1	Xi Jinping	Elite,Military,Government Major Party (In Government),(National) Major Party,Executive,Parties,Government,Executive Office,Legislative / Parliamentary,Unicameral	China	48975001	1	Reuters News	Beijing		Beijing Shi	China	39.9075	116.397
34010471	2019-02-15	Steven Mnuchin	Executive,Government,Finance / Economy / Commerce / Trade Ministry	United States	Consult	040	1	Xi Jinping	Elite,Military,Government Major Party (In Government),(National) Major Party,Executive,Parties,Government,Executive Office,Legislative / Parliamentary,Unicameral	China	48975001	1	Reuters News	Beijing		Beijing Shi	China	39.9075	116.397
34010488	2019-02-15	Narendra Modi	Nationalist,Parties,Opposition Major Party (Out Of Government),(National) Major Party,Ideological,Radicals / Extremists / Fundamentalists,Far Right,Elite,Hindu,International Religious,Dissident	India	Threaten	130	-4.4	Pakistan		Pakistan	48975015	1	Al Jazeera English	Kashmir		Punjab	Pakistan	31.3422	74.3653
34010476	2019-02-15	Mohammed bin Salman	Government,Executive	Saudi Arabia	Express intent to meet or negotiate	036	4	China		China	48975017	1	Agence France-Presse	Beijing		Beijing Shi	China	39.9075	116.397
34010477	2019-02-15	Saudi Arabia		Saudi Arabia	Express intent to meet or negotiate	036	4	Xi Jinping	Elite,Military,Government Major Party (In Government),(National) Major Party,Executive,Parties,Government,Executive Office,Legislative / Parliamentary,Unicameral	China	48975017	2	Agence France-Presse	Beijing		Beijing Shi	China	39.9075	116.397
34010478	2019-02-15	Mohammed bin Salman	Government,Executive	Saudi Arabia	Make a visit	042	1.9	Pakistan		Pakistan	48975017	6	Agence France-Presse	Gwadar		Balochistan	Pakistan	25.1216	62.3254
34010479	2019-02-15	Pakistan		Pakistan	Host a visit	043	2.8	Mohammed bin Salman	Government,Executive	Saudi Arabia	48975017	6	Agence France-Presse	Gwadar		Balochistan	Pakistan	25.1216	62.3254
34010489	2019-02-15	Australia		Australia	Express intent to cooperate economically	0311	5.2	Indonesia		Indonesia	48975021	1	Agence France-Presse	Jerusalem		Jerusalem District	Israel	31.769	35.2163
34010490	2019-02-15	Oluṣẹgun Ọbasanjọ	Centrist,Christian,International Religious,Parties,(National) Major Party,Elite,Yoruba,Ideological,International Ethnic	Nigeria	Praise or endorse	051	3.4	Muhammadu Buhari	International Religious,Parties,Center Left,(National) Major Party,Elite,Ideological,Executive Office,(National) Minor Party,Far Right,Executive,Muslim,International Ethnic,Fulani / Fulbe,Government	Nigeria	48975022	6	All Africa				Nigeria	9.17583	7.18083
34010425	2019-02-15	Foreign Affairs (Liberia)	Foreign Ministry,Executive,Government	Liberia	Praise or endorse	051	3.4	Ethiopia		Ethiopia	48975023	5	All Africa				Liberia	6.30054	-10.7969
34010494	2019-02-15	Bill Clinton	Center Left,(National) Major Party,Ideological,Parties	United States	Express intent to meet or negotiate	036	4	Nigeria		Nigeria	48975029	4	All Africa				United States	38.8951	-77.0364
34010482	2019-02-15	Kashim Shettima	Far Right,Provincial,Parties,(National) Major Party,Ideological,Government,Local	Nigeria	Make empathetic comment	018	3.4	Citizen (Nigeria)	Social,General Population / Civilian / Social	Nigeria	48975030	1	All Africa			Borno State	Nigeria	11.5	13
34010483	2019-02-15	Kashim Shettima	Far Right,Provincial,Parties,(National) Major Party,Ideological,Government,Local	Nigeria	Express intent to meet or negotiate	036	4	Citizen (Nigeria)	Social,General Population / Civilian / Social	Nigeria	48975030	4	All Africa	Maiduguri		Borno State	Nigeria	11.8464	13.1603
34010431	2019-02-15	Military (Philippines)	Government,Military	Philippines	Use conventional military force	190	-10	Combatant (Philippines)	Unidentified Forces	Philippines	48975032	1	Xinhua News Agency	Manila	City of Manila	National Capital Region	Philippines	14.6042	120.982
34010432	2019-02-15	Combatant (Philippines)	Unidentified Forces	Philippines	Use unconventional violence	180	-9	Military (Philippines)	Government,Military	Philippines	48975032	1	Xinhua News Agency	Manila	City of Manila	National Capital Region	Philippines	14.6042	120.982
